RestaurantID,Name,Address,Time,Price,Latitude,Longitude
1,Bún Thủy - Trần Nhật Duật,"98 Trần Nhật Duật, Hoàn Kiếm, Hà Nội",,,21.0362951,105.8536967
2,Trà Sữa Tocotoco - Thiên Đường Bảo Sơn,"A32-18 Khu A Geleximco Lê Trọng Tấn, Hoài Đức, Hà Nội",,,20.9818505,105.7425713
3,Texas Chicken - Aeon Mall Hà Đông,"Tầng 1 Aeon Mall Hà Đông, P. Dương Nội, Hà Đông, Hà Nội",,,20.9897037,105.7517169
4,Happy Lunch - Xuân La,"34 Ngách 36 Ngõ 28 Xuân La, P. Xuân La, Tây Hồ, Hà Nội",,,21.063447,105.8079132
5,Vịt 29 - Vịt Quay Bắc Kinh - Nguyễn Thượng Hiền,"29 Nguyễn Thượng Hiền, P. Nguyễn Du, Hai Bà Trưng, Hà Nội",,,21.018845,105.842232
6,Bánh Mì Bami Bread - Hoàng Quốc Việt,"208 Hoàng Quốc Việt, P. Cổ Nhuế, Bắc Từ Liêm, Hà Nội",,,21.0464383,105.7883613
7,Trà Sữa Tocotoco - Nguyễn Hoàng,"107 Nguyễn Hoàng, P. Mỹ Đình 2, Nam Từ Liêm, Hà Nội",,,21.0329688,105.7706382
8,"Bếp Mẹ Thỏ - Bún, Miến & Phở Trộn Online","135 Ngõ Văn Chương, P. Văn Chương, Đống Đa, Hà Nội",,,21.0227544,105.8339721
9,Trà sữa LeeTee - Kem Trứng & Trà Hoa Quả - Láng Hạ,"1B Ngõ 87 Láng Hạ, P. Thành Công, Ba Đình, Hà Nội",,,21.0174889,105.815863
10,Trà Sữa Tiger Sugar Delivery - Đường Nâu Sữa Đài Loan - Trần Quốc Hoàn,"263 Trần Quốc Hoàn, P. Dịch Vọng Hậu, Cầu Giấy, Hà Nội",,,21.0416857,105.7817063
11,JUICE BABY & TEA - Trà Và Nước Ép Hoa Quả Tươi,"31 Nguyễn Thị Định, Cầu Giấy, Hà Nội",,,21.0114349,105.8045606
12,Tocotoco - Goldsilk Complex,"L1-01 Lk Goldsilk Complex, Số 430, P. Cầu Am, Hà Đông, Hà Nội",,,20.9768556,105.7747817
13,Trà Sữa Mixue - Big C Thăng Long,"Gian Hàng 2K81 Trung Tâm Thương Mại Big C Thăng Long, Đường Trần Duy Hưng, P. Trung Hoà, Cầu Giấy, Hà Nội",,,21.0074192,105.793188
14,JapanDeli Express - Shophouse S07 Park 10 KĐT Vinhomes Times City Park Hill,"Shophouse S07 Park 10 KĐT Vinhomes Times City Park Hill , Lĩnh Nam, P. Mai Động, Hoàng Mai, Hà Nội",,,20.9926957,105.8671774
15,Maru Korean - Tiệm Đồ Ăn Hàn Quốc & Trà Sữa - Lê Đại Hành,"25 Lê Đại Hành, P. Lê Đại Hành, Hai Bà Trưng, Hà Nội",,,21.0101462,105.8493779
16,The Pizza Company - The Manor,"A004 - Tòa The Manor, Mễ Trì, P. Mỹ Đình 1, Nam Từ Liêm, Hà Nội",,,21.0137679,105.7757853
17,Tiệm Cơm ChisnBa - Cơm Rang Zòn - Ngọc Hồi,"Số 8A, Nơ 2 Khu Đô Thị Pháp Vân, Ngõ 15 Đường Ngọc Hồi, P. Hoàng Liệt, Hoàng Mai, Hà Nội",,,20.9608676,105.844858
18,Sữa Chua Trân Châu Hạ Long - Tân Mai,"116 Tân Mai, P. Tân Mai, Hoàng Mai, Hà Nội",,,20.9834751,105.8491369
19,Thái Hạnh - Huy Mai - Thiên Đường Ăn Vặt,"112 D4 Ngõ 4C Đặng Văn Ngữ, P. Trung Tự, Đống Đa, Hà Nội",,,21.0099263,105.831876
20,TOUS les JOURS - Hoàng Đạo Thúy,"24T1B KĐT Trung Hoà - Nhân Chính, Hoàng Đạo Thúy, P. Trung Hòa, Cầu Giấy, Hà Nội",,,21.0067188,105.8014655
21,"Highlands Coffee - Trà, Cà Phê & Bánh - Hà Nội Post Office","8 Lê Thạch, P. Tràng Tiền, Hoàn Kiếm, Hà Nội",,,21.027113,105.8541585
22,Bánh Gà Thần Thánh - 158 Hồng Mai,"11 Ngõ 158 Hồng Mai, P. Bạch Mai, Hai Bà Trưng, Hà Nội",,,20.9984641,105.8531987
23,Kem Dairy Queen - Royal City,"Tầng Hầm 2, Tầng Hầm B2, Royal City, 72A Nguyễn Trãi, P. Thượng Đình, Thanh Xuân, Hà Nội",,,21.0012532,105.8166275
24,Cháo Dinh Dưỡng Hải Đăng - 21 Văn Chương 2,"21 Văn Chương 2, P. Văn Chương, Đống Đa, Hà Nội",,,21.02233,105.8359886
25,With Chamei - Japanese Matcha & Houjicha - 11 Ngô Tất Tố,"Số 11 Ngô Tất Tố, P. Văn Miếu, Đống Đa, Hà Nội",,,21.0287046,105.8364542
26,Bánh Tráng Hoàng Bèo - 22 Duy Tân,"22 Duy Tân, P. Dịch Vọng Hậu, Cầu Giấy, Hà Nội",,,21.030624,105.7867391
27,"Fruits Mart - Trái Cây, Nước Ép, Sinh Tố - Lê Văn Lương","Sảnh Bể Bơi Việt Đức Complex, 39 Lê Văn Lương, P. Nhân Chính, Thanh Xuân, Hà Nội",,,21.0010818,105.8009839
28,Kem Swensen's - Times City,"Tầng Hầm 1, Tầng B1 TTTM Times City, 458 Minh Khai, P. Vĩnh Tuy, Hai Bà Trưng, Hà Nội",,,20.9958547,105.8687134
29,Chadee - Tiệm Trà Thái Đậm Vị - Trung Kính,"18 Trung Kính, P. Trung Hoà, Cầu Giấy, Hà Nội",,,21.0130091,105.7978321
30,Vua Bánh Mì Sài Gòn - Duy Tân,"44 Duy Tân, P. Dịch Vọng Hậu, Cầu Giấy, Hà Nội",,,21.0308222,105.7848213
31,Hoa Béo - Nem Nướng Ninh Hòa - Mai Động,"108 Mai Động, P. Mai Động, Hoàng Mai, Hà Nội",,,20.9914271,105.8624718
32,Tiệm Gà Rán Signature 19 - Korean Food,"52 Bùi Thị Xuân, Hai Bà Trưng, Hà Nội",,,21.0160668,105.8498163
33,Mokchang - Đồ Ăn Hàn Quốc - Đức Thượng,"57 Thú Y, X. Đức Thượng, Hoài Đức, Hà Nội",,,21.0776081,105.6911121
34,Gà Rán & Burger Lotteria - Nguyễn Tuân,"82 Nguyễn Tuân, P. Thanh Xuân Trung, Thanh Xuân, Hà Nội",,,20.9972188,105.8047694
35,Domino's Pizza - Xuân La,"D22 107 Xuân La, Bắc Từ Liêm, Hà Nội",,,21.0676528,105.8034031
36,Cơm Thố Anh Nguyễn - Bán Đảo Linh Đàm,"Toà Nhà Nơ 6B, Đường Nguyễn Duy Trinh, Bán Đảo Linh Đàm, P. Hoàng Liệt, Hoàng Mai, Hà Nội",,,20.9644029,105.8326191
37,"HN - Bún Bò Huế, Phở, Cơm Mì Xào - Lê Trọng Tấn","192/334/4 Lê Trọng Tấn, P. Định Công, Hoàng Mai, Hà Nội",,,20.9855464,105.8242752
38,Quán Cơm Hạt Dẻ - Cơm Gà Online,"10 Ngõ 68 Triều Khúc, Thanh Xuân, Hà Nội",,,20.9833335,105.7998948
39,Bảo Ngọc Food - Mì Trộn Indomie & Đồ Ăn Vặt - Chùa Quỳnh,"310 Chùa Quỳnh, P. Bạch Mai, Hai Bà Trưng, Hà Nội",,,21.0001395,105.8538489
40,Cơm Phố - Cơm Gà & Cơm Bò - Dương Khuê,"11 Ngách 11 Ngõ 28 Dương Khuê, P. Mai Dịch, Cầu Giấy, Hà Nội",,,21.0371184,105.7737058
41,Bún Đậu Mẹt Minh Thư - Văn Minh,"1 Ngõ Văn Minh, P. Mai Dịch, Cầu Giấy, Hà Nội",,,21.0399494,105.7766833
42,Xuân Food - Mì Trộn Indomie - Tây Sơn,"Số 17 Ngõ 340 Tây Sơn, Đống Đa, Hà Nội",,,21.0047774,105.8225474
43,"Hân - Tokbokki, Gà Sốt Cay Hàn Quốc & Ăn Vặt - Hồ Tùng Mậu","18 Ngõ 20 Hồ Tùng Mậu, P. Mai Dịch, Cầu Giấy, Hà Nội",,,21.0375212,105.779223
44,Cô Ba - Nem Nướng Nha Trang - Trích Sài,"245 Trích Sài, P. Bưởi, Tây Hồ, Hà Nội",,,21.0555579,105.8108389
45,Tim Food - Mì Trộn Indomie & Đồ Ăn Vặt - Hồng Hà,"1045 Hồng Hà, P. Chương Dương Độ, Hoàn Kiếm, Hà Nội",,,21.0206383,105.8620057
46,Cơm Sườn Cay HiMC - Hà Kế Tấn,"171 P. Hà Kế Tấn, P. Phương Liệt, Thanh Xuân, Hà Nội",,,20.9879268,105.8376129
47,Cơm Thố Bách Khoa - Khâm Thiên,"275 Khâm Thiên, Đống Đa, Hà Nội",,,21.019079,105.8309682
48,"Út Miền Nam - Mỳ Cay, Chân Gà Xốt Thái & Nem Chua Rán - Cầu Diễn","136/43/4 Cầu Diễn (Ngõ Quyết Tiến, Đằng Sau Trường Tiểu Học Minh Khai A, Ngọa Long), P. Minh Khai, Bắc Từ Liêm, Hà Nội",,,21.0506981,105.7426257
49,Cúc - Cháo Sườn Sụn - Phạm Văn Đồng,"Số 6 Phạm Văn Đồng (gần ngõ 12 Phạm Văn Đồng - chân cầu Thăng Long), Tổ Dân Phố Tân Xuân 3, P. Xuân Đỉnh, Bắc Từ Liêm, Hà Nội",,,21.0716044,105.7902897
50,Bún Bò Huế Hoàng Quân,"115A4 Thành Công, P. Thành Công, Ba Đình, Hà Nội",,,21.0202621,105.8157147
51,Bami Deli - Bánh Mì Hương Vị Bò Sốt - 381 Đội Cấn,"381 Đội Cấn, P. Liễu Giai, Ba Đình, Hà Nội",,,21.038204,105.8135589
52,Bún Đậu Mẹt Thủy Mít - C8 Thành Công,"104B - C8 Thành Công, P. Thành Công, Ba Đình, Hà Nội",,,21.0236478,105.8142494
53,Pizza Ông Tây - Đỗ Quang,"45 Đỗ Quang, Cầu Giấy, Hà Nội",,,21.0276005,105.790872
54,Nhem Nhem - Đồ Ăn Vặt & Mì Trộn Indomie,"Số 2 Ngõ 43/66/9 Trung Kính, P. Trung Hoà, Cầu Giấy, Hà Nội",,,21.0213629,105.791448
55,BUMTRO - Bún Trộn Nam Bộ - Đào Tấn,"26 Ngõ 58 Đào Tấn, P. Cống Vị, Ba Đình, Hà Nội",,,21.0335865,105.807787
56,Bánh Mỳ Donner Kebab Bánh Mỳ Vũ - Ăn Vặt - Nguyễn Thị Định,"9D Ngõ 1 Nguyễn Thị Định, P. Trung Hoà, Cầu Giấy, Hà Nội",,,21.0136738,105.8040187
57,Mì Trộn Indomie 158 - Thành Công,"105 - C8 Thành Công, P. Thành Công, Ba Đình, Hà Nội",,,21.0234039,105.814195
58,Bảo Bảo - Mì Trộn Indomie - Shop Online,"20 Ngách 63 Ngõ 355 Xuân Đỉnh, P. Xuân Đỉnh, Bắc Từ Liêm, Hà Nội",,,21.0715241,105.790067
59,Nem Nướng Nha Trang Ngọc Hằng - Hồng Mai,"113 Hồng Mai, P. Quỳnh Lôi, Hai Bà Trưng, Hà Nội",,,20.998898,105.854083
60,Hoa Béo - Nem Nướng Ninh Hoà - Xa La,"Số 19, Phố Xa La, P. Phúc La, Hà Đông, Hà Nội",,,20.9653079,105.7901305
61,"Zen Zen - Cơm Gà, Gà Rán & Cơm Bò - Trần Duy Hưng","12A Ngõ 88 Trần Duy Hưng, P. Trung Hòa, Cầu Giấy, Hà Nội",,,21.0125029,105.8005139
62,Tiệm Mì Indo - Kim Giang,"Số 71 Ngõ 64 Đường Kim Giang, P. Kim Giang, Thanh Xuân, Hà Nội",,,20.9815608,105.8131801
63,Gà Tươi Mạnh Hoạch - Nguyễn Văn Lộc,"17LK6C Nguyễn Văn Lộc, (70 Nguyễn Văn Lộc), P. Mỗ Lao, Hà Đông, Hà Nội",,,20.9844204,105.7876888
64,Cơm Tấm Delichi - Cơm Tấm Sườn Bì Chả - Dương Khuê,"19 Ngách 28/5 Dương Khuê, P. Mai Dịch, Cầu Giấy, Hà Nội",,,21.0370218,105.7736424
65,"Bento Delichi - Cơm Gà Xối Mỡ, Cơm Gà Mắm Tỏi - Dương Khuê","17 Ngách 28/5 Dương Khuê, P. Mai Dịch, Cầu Giấy, Hà Nội",,,21.0370024,105.7736456
66,Cô Tám - Cơm Rang & Cơm Tấm - 126 Hồng Mai,"126 Hồng Mai, Hai Bà Trưng, Hà Nội",,,20.9988011,105.8526057
67,Cơm Tấm Phương Anh - Bạch Mai,"35 Bạch Mai, P. Ô Cầu Dền, Hai Bà Trưng, Hà Nội",,,21.0047808,105.8517934
68,Duy Nhất - Phở Bò & Cơm Rang - Vĩnh Hưng,"51 Vĩnh Hưng, P. Vĩnh Hưng, Hoàng Mai, Hà Nội",,,20.9889555,105.8778113
69,Cô Ba - Nem Nướng Nha Trang - Minh Khai,"382 Minh Khai, P. Vĩnh Tuy, Hai Bà Trưng, Hà Nội",,,20.9967853,105.8645231
70,Hoàng Huệ - Cơm Rang & Bún Bò Trộn - Chùa Láng,"14/22 Ngõ 185 Chùa Láng, Đống Đa, Hà Nội",,,21.0224083,105.8012114
71,"Quán Cô Mai - Bún, Miến & Bánh Đa Các Loại","6 Ngách 1 Ngõ 63 Trần Quốc Vượng, P. Dịch Vọng Hậu, Cầu Giấy, Hà Nội",,,21.0412361,105.7871375
72,Tiệm Gà Rán Óng Ánh - Ngọc Hà,"Số 6 Ngách 128, Ngõ 158 Ngọc Hà, P. Ngọc Hà, Ba Đình, Hà Nội",,,21.0371235,105.8287112
73,Chị Cúc - Bún Trộn Nam Bộ - Nguyễn Tuân,"164 Nguyễn Tuân, P. Thanh Xuân Trung, Thanh Xuân, Hà Nội",,,20.9992214,105.8029285
74,Như Mây - Bánh Đa Trộn,"38 Phố Thọ Lão, P. Đống Mác, Hai Bà Trưng, Hà Nội",,,21.0114652,105.8577852
75,Quán Ngon 286 - Bún Trộn Nam Bộ - Giáp Bát,"245 Giáp Bát, P. Giáp Bát, Hoàng Mai, Hà Nội",,,20.9828713,105.8443538
76,Đức Food - Mì Trộn Indomie - Ngõ 95 Chùa Bộc,"110 Ngõ 95 Chùa Bộc, Đống Đa, Hà Nội",,,21.0050178,105.8273063
77,Minh Phương - Nem Nướng Nha Trang - Vành Đai 2.5 Định Công,"Số 38 Đ. Vành Đai 2.5 Định Công, P. Định Công, Hoàng Mai, Hà Nội",,,20.9834615,105.8315167
78,Burger King - Giảng Võ,"C4 Giảng Võ, P. Giảng Võ, Ba Đình, Hà Nội",,,21.0260733,105.8229746
79,Cheese Coffee - Lê Đại Hành,"50A Đường Lê Đại Hành, P. Lê Đại Hành, Hai Bà Trưng, Hà Nội",,,21.0117701,105.8482665
80,Gong Cha - Trà & Cà Phê - Hoàng Đạo Thúy,"Tầng 1, 34T Hoàng Đạo Thúy, P. Trung Hòa, Cầu Giấy, Hà Nội",,,21.0058416,105.8046588
81,"Highlands Coffee - Trà, Cà Phê & Bánh - Eco Lake View","32 Đại Từ, P. Đại Kim, Hoàng Mai, Hà Nội",,,20.9729872,105.8388314
82,Tian Long - Lẩu Bò Tươi Triều Châu Cơ Sở 1 - Trần Thái Tông,"107-D5 Trần Thái Tông, P. Dịch Vọng Hậu, Cầu Giấy, Hà Nội",,,21.0319882,105.788223
83,"Snap Food - Cơm, Bún & Bánh Mì Healthy - Nguyễn Phong Sắc","87A Nguyễn Phong Sắc, P. Dịch Vọng Hậu, Cầu Giấy, Hà Nội",,,21.0389263,105.7902257
84,"Al Fresco's - Pizza, Mỳ Ý, Sườn, Steak Bò Bít Tết - Hai Bà Trưng","23L Hai Bà Trưng, P. Hàng Bài, Hoàn Kiếm, Hà Nội",,,21.0239558,105.8531381
85,Trà Sữa Tocotoco - Cầu Giấy,"320 Cầu Giấy, Cầu Giấy, Hà Nội",,,21.0288012,105.8047712
86,KOI Thé - Cầu Giấy,"Số 377 Đường Cầu Giấy, Tổ 11, P. Dịch Vọng, Cầu Giấy, Hà Nội",,,21.03617,105.7899814
87,Guu Chicken - Cơm Gà & Gà Rán - Tam Khương,"3 Tam Khương, P. Khương Thượng, Đống Đa, Hà Nội",,,21.0041894,105.8295075
88,The Alley - Trà Sữa Đài Loan - 48 Trần Phú,"48 Trần Phú, P. Mộ Lao, Hà Đông, Hà Nội",,,20.9852621,105.7918363
89,Gà Luộc & Gà Ủ Muối Hoa Tiêu & Gà Rán - Phùng Khoang,"Liền Kề 1 Lô 10 Ngõ 67 Phùng Khoang, P. Trung Văn, Nam Từ Liêm, Hà Nội",,,20.986932,105.7931326
90,Ding Tea - Nguyễn Văn Huyên,"Nguyễn Văn Huyên (7 Ngõ 36 Hoàng Quốc Việt), P. Nghĩa Đô, Cầu Giấy, Hà Nội",,,21.0468615,105.7979283
91,"Chè Ngon Đảo Chè - Kem Xôi Bơ, Trà Sữa & Ăn Vặt - Lê Văn Thiêm","Số 1 Ngõ 29 Lê Văn Thiêm, P. Nhân Chính, Thanh Xuân, Hà Nội",,,21.0029226,105.8020914
92,Omy Bakery - Bánh Ngọt & Trà - Xuân Thủy,"1H13 Ngõ 130 Xuân Thuỷ, P. Dịch Vọng, Cầu Giấy, Hà Nội",,,21.0377288,105.7853407
93,Susi's Cake - Bông Lan Trứng Muối - Tôn Đức Thắng,"73 Văn Chương 2, P. Tôn Đức Thắng, Đống Đa, Hà Nội",,,21.0261485,105.833624
94,"Ăn Vặt Quyết Sọt - Xiên Que, Mì Trộn & Trà Chanh - Khu Đô Thị Mới Định Công","CT1A- DN1 Khu Đô Thị Mới Định Công, Hoàng Mai, Hà Nội",,,21.0336432,105.7677595
95,Trung Nguyên Legend - Hoàng Đạo Thúy,"17T2 - 17T3 Hoàng Đạo Thúy, P. Trung Hòa, Cầu Giấy, Hà Nội",,,21.0092806,105.8011903
96,Đảo Chè - Chè Sạch Vị Ngon - Ngô Thì Nhậm,"17A Ngô Thì Nhậm, P. Quang Trung, Hà Đông, Hà Nội",,,20.9680084,105.7696872
97,Quán Quen - Mỳ Chua Cay - 167 Tây Sơn,"P113 - Ký Túc Xá 5A Ngõ 167 Tây Sơn (Cuối Ngõ Rẻ Phải 5m), P. Quang Trung, Đống Đa, Hà Nội",,,21.0094613,105.8277102
98,YH.TANG - Đệ Nhất Trà Sữa Nướng - Trần Phú,"64 Trần Phú, P. Mộ Lao, Hà Đông, Hà Nội",,,20.9852608,105.7918354
99,LAT - Latte & Trà Sữa - Giải Phóng,"Tòa A2 Ngõ 773 Đường Giải Phóng, P. Giáp Bát, Hoàng Mai, Hà Nội",,,20.9867324,105.8417612
100,Mango Hello - Trà Xoài & Xôi Xoài - 04 Nguyễn Thị Định,"Số 4 Nguyễn Thị Định, P.Nhân Chính, Thanh Xuân, Hà Nội",,,21.0071962,105.8060946
101,Nucafe - Lê Thánh Tông,"18A Lê Thánh Tông, P.Phan Chu Trinh, Hoàn Kiếm, Hà Nội",,,21.0201762,105.8582757
102,Nem Chua Rán 36 Tạm Thương - Tây Sơn,"Số 6A Ngõ 178 Tây Sơn, P. Trung Liệt, Đống Đa, Hà Nội",,,21.0104408,105.8247367
103,"Sành Rau Má, Nước Mía Sầu Riêng & Trà Bí Đao - Tam Khương","Số 83A Phố Tam Khương, P. Khương Thượng, Đống Đa, Hà Nội",,,21.004437,105.8273305
104,Matcha Vibe - Tiệm Trà Nhật Bản - 11A Lương Thế Vinh,"Số 11A Lương Thế Vinh, P. Văn Quán, Thanh Xuân, Hà Nội",,,20.9885502,105.7984151
105,Trà Sữa Wait Tea - Cầu Diễn,"66 Ngõ 134 Cầu Diễn, Bắc Từ Liêm, Hà Nội",,,21.0514267,105.7385591
106,Chin Chin - Trà Sữa Đậm Vị & Trà Hoa Quả Tươi - Quang Trung,"451 Quang Trung, P. Phú La, Hà Đông, Hà Nội",,,20.9637068,105.7670177
107,A-Phú - Mì Trộn Indomie & Ăn Vặt - Thanh Xuân Bắc,"102B - E11 Thanh Xuân Bắc (Ngõ 116 Lương Thế Vinh), P. Thanh Xuân Bắc, Thanh Xuân, Hà Nội",,,20.9908065,105.7984639
108,NooShan - Trà Sữa Shan Tuyết Pha Máy - 42 Nguyễn Văn Tuyết,"42 Nguyễn Văn Tuyết, P. Ngã Tư Sở, Đống Đa, Hà Nội",,,21.0071919,105.8222129
109,Minh Food - Nem Chua Rán Và Xiên Que,"38 Ngõ Thái Thịnh 1, P. Thịnh Quang, Đống Đa, Hà Nội",,,21.0104505,105.8173949
110,"Kiot Trạm - Cafe Muối, Trà Sữa & Trà Hoa Quả - 27 Trương Công Giai","Số 38/45 Trần Thái Tông, P. Dịch Vọng, Cầu Giấy, Hà Nội",,,21.034015,105.790885
111,1000M - Trà & Trà Sữa Shan Tuyết Thượng Hạng - 45 Nguyễn Thị Định,"45 Nguyễn Thị Định, P. Trung Hoà, Cầu Giấy, Hà Nội",,,21.0108377,105.8047172
112,"Trà sữa Winggo - Trà Sữa Kem Trứng Nướng, Trà Hoa Quả & Matcha - 34 Trung Hòa","34 Trung Hòa, P. Trung Hoà, Cầu Giấy, Hà Nội",,,21.0156167,105.8007117
113,Trà Sữa Rosier - Fresh Tea & Coffee - Tô Hiến Thành,"63 Tô Hiến Thành, Hai Bà Trưng, Hà Nội",,,20.9712286,105.784635
114,Trà Sữa Đô Đô - Ngô Thì Nhậm,"34B Ngô Thì Nhậm, P. Hà Cầu, Hà Đông, Hà Nội",,,20.9692956,105.7689228
115,Tiệm Trà Trái Cây Mê Ly - 100 Thái Thịnh,"100 Thái Thịnh, P. Láng Hạ, Đống Đa, Hà Nội",,,21.014543,105.8142383
116,Trà Sữa Yi He Tang - 127 Nguyễn Thị Định,"Số 127 Nguyễn Thị Định, P. Trung Hòa, Cầu Giấy, Hà Nội",,,21.0074026,105.8054641
117,Là Xôi - 318A Thái Hà,"318A Thái Hà, P. Trung Liệt, Đống Đa, Hà Nội",,,21.015076,105.817169
118,"Bánh Tráng Happy - Mì Trộn, Đồ Ăn Vặt & Trà Sữa - 325 Vũ Tông Phan","325 Vũ Tông Phan, P. Khương Đình, Thanh Xuân, Hà Nội",,,20.9920764,105.8142116
119,Trà Sữa Royaltea - 323 Xuân Đỉnh,"Số 12 Ngõ 323/75, P. Xuân Đỉnh, Bắc Từ Liêm, Hà Nội",,,21.0706788,105.7910928
120,Hap Juice - Nước Ép & Sinh Tố - 175 Trương Định,"175 Trương Định, P. Trương Định, Hai Bà Trưng, Hà Nội",,,20.9908805,105.8481833
121,Thuý Mẹt - Nem Chua Rán Tạm Thương - Ô Chợ Dừa,"92A Ô Chợ Dừa, Đống Đa, Hà Nội",,,21.0202055,105.8272392
122,Gà Rán KFC - Bạch Mai,"373 Bạch Mai, P. Bạch Mai, Hai Bà Trưng, Hà Nội",,,20.9999837,105.8505902
123,Phúc Long 1B Nguyễn Hữu Huân,"1B Nguyễn Hữu Huân, P. Lý Thái Tổ, Hoàn Kiếm, Hà Nội",,,21.0347796,105.8544467
124,Phê La - Trà & Cà Phê Đặc Sản - Đại La,"24 Ngõ 128C Đại La, P. Đồng Tâm, Hai Bà Trưng, Hà Nội",,,20.9974051,105.8442796
125,The Coffee House - Lê Thanh Nghị,"92 Lê Thanh Nghị, P. Bách Khoa, Hai Bà Trưng, Hà Nội",,,21.0035084,105.8479068
126,Gà Rán Popeyes - Trần Quốc Hoàn,"69 Trần Quốc Hoàn, P. Dịch Vọng Hậu, Cầu Giấy, Hà Nội",,,21.0414705,105.7867932
127,ChanChan - Sữa Tươi Trân Châu Đường Đen Kem Trứng,"Số Nhà 23 Ngõ 63 Trần Quốc Vượng, P. Dịch Vọng Hậu, Cầu Giấy, Hà Nội",,,21.0341644,105.7849215
128,"Bánh Cờ-Rếp Crepe, Mì Trộn & Đồ Ăn Vặt - Nguyễn Văn Linh","Số 16 Ngách 765/114 Nguyễn Văn Linh, Long Biên, Hà Nội",,,21.0316231,105.9196243
129,Fruit Garden - Trái Cây Tươi Cắt Gọt Sẵn - Bắc Từ Liêm,"39 Ngõ 178 Cổ Nhuế, P. Cổ Nhuế 2, Bắc Từ Liêm, Hà Nội",,,21.0623758,105.7714947
130,Việt Nguyễn Coffee - Đại La,"10 Ngõ 35 - 37 Đại La, P. Trương Định, Hai Bà Trưng, Hà Nội",,,20.9971074,105.8468387
131,"Nguyệt Phong FOOD - Bánh Chưng Rán, Bánh Mỳ Pate & Mì Trộn Indomie - Văn Chương","Số 66 Ngách 33 Ngõ Văn Chương 2, P. Văn Chương, Đống Đa, Hà Nội",,,21.0237853,105.8362652
132,Gà Rán & Pizza 99,"10 Ngõ 38 Khúc Thừa Dụ, P. Dịch Vọng, Cầu Giấy, Hà Nội",,,21.0341207,105.7914413
133,"Doo Foods - Burger, Gà Rán & Cơm Gà - Giải Phóng","37 ngõ 205 Giải Phóng, P. Đồng Tâm, Hai Bà Trưng, Hà Nội",,,21.0009081,105.8418428
134,"Tiệm Trà Chè Sky - Mì Trộn Indomie, Mì Chua Cay & Trà Chanh - Thượng Đình","6 Thượng Đình, P. Thượng Đình, Thanh Xuân, Hà Nội",,,21.0009617,105.8180027
135,"Hủ Tiếu Thái Lan, Trà Sữa Thái, Ăn Vặt - Pi Thai - 101A Phạm Ngọc Thạch","101A Phố Phạm Ngọc Thạch, Tổ 50, P. Phương Liên, Đống Đa, Hà Nội",,,21.0106646,105.8368567
136,"Tiệm Trà Thủ Đô - Trà Trái Cây Tươi Không Siro, Trà Sữa & Nước Ép - 69 Nguyễn Hoàng","Số 69 Nguyễn Hoàng, P. Mỹ Đình 2, Nam Từ Liêm, Hà Nội",,,21.0328358,105.771326
137,Coco Nama Tea Bar - Nguyễn Khánh Toàn,"74A Nguyễn Khánh Toàn, P. Quan Hoa, Cầu Giấy, Hà Nội",,,21.0373606,105.8051355
138,AI Coffee - 145 Nhật Chiêu,"145 Nhật Chiêu, P. Nhật Tân, Tây Hồ, Hà Nội",,,21.0728408,105.8146455
139,Duy Food - Mì Trộn Indomie,"Số 3 Ngõ 67 Trần Phú, P. Văn Quán, Hà Đông, Hà Nội",,,20.9867548,105.7923823
140,Okitaco - Cơm Taco Okinawa,"S402.01S09 Vinhomes Smart City, P. Tây Mỗ, Nam Từ Liêm, Hà Nội",,,21.0045625,105.7404219
141,"Le Pain Lee - Burger, Gà Rán & Cơm Gà - Nguyễn Xiển","65 Ngõ 161 Nguyễn Xiển, P. Hạ Đình, Thanh Xuân, Hà Nội",,,20.9872897,105.8076101
142,"Tiệm Bé Cá – Trà Sữa, Mỳ Ý & Sandwich","Số Nhà 8 Ngõ 583 Đường Nguyễn Trãi, Tổ 13, P. Thanh Xuân Nam, Thanh Xuân, Hà Nội",,,20.9852423,105.7954235
143,Quang Food - Mì Trộn Indomie - Ngõ Chợ Khâm Thiên,"Số 30 Ngõ 143 Chợ Khâm Thiên, P. Trung Phụng (Đối diện UBND phường Trung Phụng), Đống Đa, Hà Nội",,,21.0156044,105.8377262
144,Hà Juice - Nước Ép & Trà Trái Cây Tươi,"18 Ngõ 105 Trần Quốc Vượng, P. Dịch Vọng Hậu, Cầu Giấy, Hà Nội",,,21.034324,105.7846936
145,"Sữa Hạt Mix - Đậu Nành, Rau Má Mix & Trà Sữa Gạo - 126 Phúc Tân","126 Phúc Tân, P. Phúc Tân, Hoàn Kiếm, Hà Nội",,,21.0330376,105.8574813
146,"Dương Dương - Lẩu Tokbokki, Mỳ Cay, Kimbap - Đồng Me","Số Nhà 46 Ngõ 32 Đồng Me, P. Mễ Trì, Nam Từ Liêm, Hà Nội",,,21.0094549,105.779327
147,The Chum Coffee - 42 Trần Quý Kiên,"42 Trần Quý Kiên, Cầu Giấy, Hà Nội",,,21.0362798,105.7922248
148,Chè Bưởi Tư Đỉnh - Lương Thế Vinh,"68 Lương Thế Vinh, P. Thanh Xuân Bắc, Thanh Xuân, Hà Nội",,,20.9891175,105.7978188
149,"Hạt Gạo Food - Cơm Cuộn Rong Biển, Mỳ Ý & Đồ Ăn Nhanh - 286 Nguyễn Xiển","CT3 Chung Cư Ecogreen, 286 Nguyễn Xiển, X. Tân Triều, Thanh Trì, Hà Nội",,,20.9835529,105.8086745
150,Trà Sữa Tocotoco - 271 Nguyễn Khang,"271 Nguyễn Khang, P. Yên Hòa, Cầu Giấy, Hà Nội",,,21.0272577,105.7983533
151,San Tokbokki - Ẩm Thực Hàn Quốc - Trần Quốc Hoàn,"3A2 Ngõ 215 Trần Quốc Hoàn, P. Dịch Vọng Hậu, Cầu Giấy, Hà Nội",,,21.0416163,105.7827713
152,"Tiệm Phương Linh - Mì Trộn Indomie, Bánh Mì Pate & Nước Ép - Đồng Tiến","Số 73 Đường Đồng Tiến, Hoài Đức, Hà Nội",,,20.9800279,105.7288223
153,Moi Cheese - Trà Sữa Full Topping - Số 7 Xuân Thuỷ,"Số 7 Xuân Thủy, P. Dịch Vọng Hậu, Cầu Giấy, Hà Nội",,,21.0339377,105.7883737
154,BÁNH GÀ HUA - CHÙA BỘC,"42 Ngách 8 Ngõ 95 Chùa Bộc, P. Trung Liệt, Đống Đa, Hà Nội",,,21.0064212,105.8278244
155,Tiệm Trà BốpBi - Xuân Đỉnh - .,"489 Xuân Đỉnh , Bắc Từ Liêm, Hà Nội",,,21.0750136,105.7884186
156,"16H - Milk, Tea & Coffee - Thanh Xuân","109 E8 Thanh Xuân Bắc, Thanh Xuân, Hà Nội",,,20.9901345,105.7995979
157,KAMPONG - Cơm gà Hải Nam - Ngoại Giao Đoàn,"Tòa N03 - T3, Ngoại Giao Đoàn, Bắc Từ Liêm, Hà Nội",,,21.064397,105.7986064
158,TacoZone - Nguyễn Thái Học,"129 Nguyễn Thái Học, P. Điện Biên, Ba Đình, Hà Nội",,,21.0298624,105.8370622
159,Pizza Home - Thái Phiên,"41 Thái Phiên, Lê Đại Hành, Hà Nội, Hai Bà Trưng, Hà Nội",,,21.0106065,105.8494497
160,Mr. Spaghetti - Nguyễn Thái Học,"129 Nguyễn Thái Học, Đống Đa, Hà Nội",,,21.0298624,105.8370622
161,Bếp Trên Mây Cloud Cook - Nguyễn Thái Học,"129 Nguyễn Thái Học, Ba Đình, Hà Nội",,,21.0298624,105.8370622
162,SugarKing - Đường Nâu Đài Loan - Linh Đàm,"ki Ốt 9 D1 CT2 Tây Nam Linh Đàm, P. Hoàng Liệt, Hoàng Mai, Hà Nội",,,20.9644683,105.8244121
163,Thanh Food - Mì Trộn Indomie & Bánh Mì - Tây Sơn,"11 Ngõ 252/34 Tây Sơn, P. Trung Liệt, Đống Đa, Hà Nội",,,21.008364,105.8230941
164,Tâm Food - Mì Trộn Indomie & Bánh Mì - Tây Sơn,"15 Ngõ 252/34 Tây Sơn, P. Trung Liệt, Đống Đa, Hà Nội",,,21.008364,105.8230941
165,Cô Quỳnh - Chè Mùa Hè & Sinh Tố Nước Ép,"307 Vũ Tông Phan, P. Khương Đình, Thanh Xuân, Hà Nội",,,20.9924454,105.8142347
166,Thanh Tâm - Chuyên Trà Sữa & Đồ Ăn Vặt - Shop Online,"15 Ngõ 252/34 Tây Sơn, P. Trung Liệt, Đống Đa, Hà Nội",,,21.008364,105.8230941
167,Bánh Mì Nem Khoai Và Bánh Gà - Minh Châu,"84 Ngõ 32 Đỗ Đức Dục, P. Mễ Trì, Nam Từ Liêm, Hà Nội",,,21.0105369,105.7805521
168,Fish Love Cake - Bánh Sinh Nhật - Hồng Hà,"10 Ngõ 195 Hồng Hà, P. Phúc Tân, Hoàn Kiếm, Hà Nội",,,21.0369958,105.8538513
169,Super Chicken - Tiệm Gà Online,"Ngách 33 Ngõ 9 Đào Tấn, P. Ngọc Khánh, Ba Đình, Hà Nội",,,21.0326672,105.806135
170,Linh Nhi Juice - Nước Ép & Sinh Tố Nguyên Chất,"101 Quan Hoa, Cầu Giấy, Hà Nội",,,21.0276005,105.790872
171,Bánh Mì Que - Chuẩn Vị Hải Phòng - Phố Nguyễn Phạm Tuân,"25 Phố Nguyễn Phạm Tuân, P. Điện Biên, Ba Đình, Hà Nội",,,21.0334132,105.8329086
172,Nhóp Nhép - Thế Giới Đồ Ăn Vặt Online - Doãn Kế Thiện,"Số 7 Ngõ 221 Doãn Kế Thiện, P. Mai Dịch, Cầu Giấy, Hà Nội",,,21.0417017,105.7756743
173,Nem Lụi Huế - Ăn Là Like - Thụy Khuê,"8 Ngõ 4 Thụy Khuê (Ngõ Xưởng Phim Tây Hồ), P. Thụy Khuê, Tây Hồ, Hà Nội",,,21.0407158,105.8266039
174,Bún Cá Gia Quất - Bún & Bánh Đa - Gia Quất,"1 Ngõ 54 Phố Gia Quất, P. Thượng Thanh, Long Biên, Hà Nội",,,21.054434,105.8788587
175,Cà Phê Mang Đi - Khu Đô Thị Đô Nghĩa (Cạnh Vườn Lan Chí Tuệ),"Khu Đô Thị Đô Nghĩa, Hà Đông, Hà Nội",,,20.9570705,105.7373505
176,DH PLUS - Mì Trộn Indomie & Ăn Vặt,"Số 21 Ngõ 4 Ao Sen, P. Mộ Lao, Hà Đông, Hà Nội",,,20.9818832,105.7884436
177,Bami King - Bánh Mì Bò Nướng & Cơm Thố - An Trạch,"116 An Trạch, P. Cát Linh, Đống Đa, Hà Nội",,,21.0273211,105.8281804
178,Mì Trộn Thu Trang - Trần Khát Chân,"Ngõ 30 Trần khát Chân Kéo Dài, P. Bạch Đằng (Đối diện Mazda ô tô), Hai Bà Trưng, Hà Nội",,,21.0088924,105.8644299
179,Cháo Sườn Sụn 918 - Phúc Đồng,"10A9 Khu Tập Thể 918 Phúc Đồng, P. Phúc Đồng, Long Biên, Hà Nội",,,21.0375916,105.8972613
180,MiChuKa - Mì Chua Cay & Đồ Ăn Vặt - Khâm Thiên,"65 Ngõ 100 Ngách 59 Chợ Khâm Thiên, Đống Đa, Hà Nội",,,21.0392785,105.8232591
181,Bánh Gà Phùng Khoang,"10 Ngõ 32 Phùng Khoang, P. Trung Văn, Nam Từ Liêm, Hà Nội",,,20.9871112,105.793752
182,Dimsum Điểm Tâm Đài Loan - Phố Định Công Thượng,"8C Ngách 1, Ngõ 88 Phố Định Công Thượng, Hoàng Mai, Hà Nội",,,20.991532,105.8405083
183,Phương Trinh - Cơm Ngon,"120 Bùi Xương Trạch, P. Khương Đình, Thanh Xuân, Hà Nội",,,20.9883454,105.8210228
184,"Bếp Nhà Thỏ - Chân Gà Sốt Thái, Gà Ủ Muối & Mì Trộn Indomie - Bùi Xương Trạch","120D Bùi Xương Trạch, P. Khương Đình, Thanh Xuân, Hà Nội",,,20.9883454,105.8210228
185,Bánh Mì & Xôi - Huấn Hoa Cúc,"50 Ngõ 185 Chùa Láng, Đống Đa, Hà Nội",,,21.0219285,105.8014928
186,Duy Tùng - Mì Trộn Indomiee - Thái Hà,"Số 19 Nghách 69 Ngõ 117 Thái Hà, Đống Đa, Hà Nội",,,21.0112581,105.8196788
187,Bún Đậu Mẹt & Bún Chả Hà Nội - Hoàng Phố,"26 Ngõ 66 Hồ Tùng Mậu, P. Mai Dịch, Cầu Giấy, Hà Nội",,,21.038464,105.7775908
188,Tiệm Mì Indo - Đặng Văn Ngữ,"91 Đặng Văn Ngữ, Đống Đa, Hà Nội",,,21.0106895,105.8307691
189,Bánh Mì Thập Cẩm - Thanh Nga - Linh Lang,"96 Linh Lang, P, Cống Vị, Ba Đình, Hà Nội",,,21.0334851,105.8097624
190,"Sinh Tố, Nước Ép & Trà Trái Cây AYE - Nguyễn Ngọc Vũ","10a/139 Nguyễn Ngọc Vũ, P. Trung Hoà, Cầu Giấy, Hà Nội",,,21.0105321,105.8084098
191,Cô Hải - Nước Ép & Sinh Tố Hoa Quả Tươi,"Số Nhà 15 Ngõ 252 Ngách 34 Tây Sơn, P. Trung Liệt, Đống Đa, Hà Nội",,,21.0086307,105.8226538
192,Cô Hoa - Cơm Gà & Đồ Ăn Vặt,"3 Võ Quý Huân, P. Phúc Diễn, Bắc Từ Liêm, Hà Nội",,,21.0462311,105.7503852
193,Sasuke - Mì Cay & Mì Chua Cay - Chợ Khâm Thiên,"Số 25 Ngõ 100 Ngách 59 Chợ Khâm Thiên, Đống Đa, Hà Nội",,,21.0392785,105.8232591
194,Lẩu Thái - Lẩu Thái Hải Sản 35,"Số 14 Ngõ 35 Thái Thịnh, p. Ngã Tư Sở, Đống Đa, Hà Nội",,,21.0071431,105.8211378
195,Nước Ép Sinh Tố - Đình Thôn,"14A Ngõ 154 Đình Thôn, P. Mỹ Đình 1, Nam Từ Liêm, Hà Nội",,,21.0187808,105.7762511
196,Hằng Thịnh - Cơm Rang Giòn - 211 Phúc Tân,"211 Phúc Tân, P. Phúc Tân, Hoàn Kiếm, Hà Nội",,,21.0330376,105.8574813
197,Bếp KOKA - Cơm Đa Dạng & Đồ Ăn Vặt - Dương Văn Bé,"Số 57 Ngõ 94 Phố Dương Văn Bé, P. Vĩnh Tuy, Hai Bà Trưng, Hà Nội",,,20.9997346,105.872781
198,MinMax Fresh - Chè Khoai Dẻo Online,"77A Hồng Mai, P. Quỳnh Lôi, Hai Bà Trưng, Hà Nội",,,20.9991306,105.8531386
199,Sam Fruits - Hoa Quả Gọt Sẵn - Nước Ép Trái Cây & Đồ Ăn Vặt,"Số 119 Ngõ Thái Thịnh 1, P. Thịnh Quang, Đống Đa, Hà Nội",,,21.0092633,105.8161658
200,Vua Cháo Sườn Sụn & Đồ Ăn Vặt - Shop Online,"3 Ngách 17 Ngõ 100 Sài Đồng, P. Sài Đồng, Long Biên, Hà Nội",,,21.0350167,105.9131587
201,ANDU - Chân Gà Nướng - Nguyễn Chí Thanh,"6 Ngõ 107 Đường Nguyễn Chí Thanh, P. Láng Hạ, Đống Đa, Hà Nội",,,21.0158171,105.8058236
202,"Bánh Tôm Hà Thành - Gỏi Cuốn, Bánh Tôm & Bánh Gối - 190D Yên Bình","Số 190D Yên Bình, P. Phúc La, Hà Đông, Hà Nội",,,20.9712683,105.790058
203,Tiệm Trà Dâu Tây Đông Du,"Số Nhà 3, Ngõ 402 Ngách 76/20 Mỹ Đình, P. Mỹ Đình, Nam Từ Liêm, Hà Nội",,,21.0324412,105.7723591
204,"Quán Tía Tô - Bún Riêu Ốc Cá, Cháo Lòng & Bún Đậu Mắm Tôm","Số 37 Ngõ 2 Kiều Mai, P. Phúc Diễn, Bắc Từ Liêm, Hà Nội",,,21.044782,105.7517361
205,An An - Mỳ Kim Chi & Cơm Văn Phòng - Ngõ 2 Ao Sen,"Số 9 Ngõ 2 Ao Sen, P. Mộ Lao, Hà Đông, Hà Nội",,,20.981263,105.7882723
206,HIẾU FOOD - Nem Chua Rán & Trà Sữa - Tây Sơn,"Số Nhà 18, Ngách 252/34 Tây Sơn, P. Trung Liệt, Đống Đa, Hà Nội",,,21.0088362,105.8231189
207,Bà Thanh - Tây Sơn,"Số nhà 15 ngách 252/34 Tây Sơn, P. Trung Liệt, Đống Đa, Hà Nội",,,21.0086307,105.8226538
208,Mr.Eco Salad Healthy - Food & Drinks - Đặng Tất,"11 Đặng Tất, P. Quán Thánh, Ba Đình, Hà Nội",,,21.0420057,105.8379778
209,Bản Gác Food - Trâu Gác Bếp - Vinhomes Smart City,"Toà S401 - Vinhomes Smart City, P. Tây Mỗ, Nam Từ Liêm, Hà Nội",,,21.0049016,105.739483
210,Trà Chanh Smile,"14A Ngõ 154 Đình Thôn, P. Mỹ Đình 1, Nam Từ Liêm, Hà Nội",,,21.0187808,105.7762511
211,Trà Chanh Giã Tay Chị Đẹp - Trà Hoa Quả Tươi - 10 Ngõ 27 Phan Văn Trường,"Số 10 Ngõ 27 Phan Văn Trường, Cầu Giấy, Hà Nội",,,21.038503,105.7857631
212,Nem Nướng Nha Trang Anh Tư - Nguyễn Văn Cừ,"29 ngõ 67 Nguyễn Văn Cừ, P. Ngọc Lâm, Long Biên, Hà Nội",,,21.0411793,105.8682087
213,Ăn Vặt Cay Cay - Ăn Vặt Nội Địa Trung - Phố Đốc Ngữ,"Nhà Số 3, Ngõ 127 Phố Đốc Ngữ, P. Liễu Giai, Ba Đình, Hà Nội",,,21.0395146,105.8132345
214,Hidu House - Mỳ Ý & Pizza - Lương Định Của,"27 Ngõ 28 Lương Định Của, P. Kim Liên, Đống Đa, Hà Nội",,,21.0051234,105.8352586
215,"Cơm Gà, Bánh Mì Bami & Đồ Uống - Đức Diễn","26 Đức Diễn, P. Phúc Diễn, Bắc Từ Liêm, Hà Nội",,,21.0504427,105.7540746
216,Cháo Dinh Dưỡng Thùy Linh - Phan Đình Giót,"117 Phan Đình Giót, P. La Khê, Hà Đông, Hà Nội",,,20.9682531,105.7640458
217,Bánh Mì Sài Gòn - 19Y Thụy Khuê,"19y Thụy Khuê, P. Thụy Khuê, Tây Hồ, Hà Nội",,,21.0411568,105.829148
218,Trà Bí Đao An Nhiên - Giáp Nhất,"67 Giáp Nhất, P. Thượng Đình, Thanh Xuân, Hà Nội",,,21.0032088,105.817008
219,Bánh Mì Dân Tổ - Bánh Mì - Ngõ Tự Do,"Số 1 Ngõ 56 Ngõ Tự Do, P. Trương Định, Hai Bà Trưng, Hà Nội",,,20.9986248,105.8460402
220,The An Eat Clean - Healthy Gạo Lứt,"Số 13 Lý Thường Kiệt, P. Phan Chu Trinh, Hoàn Kiếm, Hà Nội",,,21.0213055,105.8565206
221,"Bánh Mỳ Doner Kebeb, Nước Ép Trái Cây & Đồ Ăn Vặt - Bùi Xương Trạch","99A Bùi Xương Trạch, P. Khương Đình, Thanh Xuân, Hà Nội",,,20.9897241,105.8177822
222,Hạnh Food - Nem Chua Rán Ăn Vặt,"3 Ngõ 5 Trần Nhật Duật, P. Quang Trung, Hà Đông, Hà Nội",,,20.972531,105.7747988
223,"Quán Nhà Kẹo - Mì Indomie, Mì Trộn & Đồ Ăn Vặt - 18 Ngõ 575 Kim Mã","Nhà 1A Ngách 18/575 Kim Mã, P. Kim Mã, Ba Đình, Hà Nội",,,21.0293324,105.8092778
224,"Bánh Cá Taiyaki, Sandwich & Bánh Mì Muối Ớt - Văn Chương","207 Ngõ Văn Chương, P. Văn Chương, Đống Đa, Hà Nội",,,21.0217676,105.8350737
225,3T Food Chân Gà Sốt Thái - Vương Thừa Vũ,"24 Ngõ 184 Vương Thừa Vũ, P. Khương Trung, Thanh Xuân, Hà Nội",,,20.9974852,105.8213524
226,Briques - Ngõ Gạch,"9 Ngõ Gạch, P. Hàng Buồm, Hoàn Kiếm, Hà Nội",,,21.0362423,105.8503218
227,"Tiệm Ăn Vặt Mẹ Ken - Xiên Que, Bánh Tráng & Nước Ép - 181 Hoàng Hoa Thám","181 Hoàng Hoa Thám, P. Ngọc Hà, Ba Đình, Hà Nội",,,21.0412987,105.8227643
228,Bánh Mỳ Thịt Nướng - Nước Ép Nguyên Chất,"295 Lê Xá, X. Đa Tốn, Gia Lâm, Hà Nội",,,20.9870496,105.9354727
229,Shin - Mì Cay & Gà Rán Sốt Hàn - Khâm Thiên,"32 Ngõ cống Trắng, Phố Khâm Thiên, P. Trung Phụng, Đống Đa, Hà Nội",,,21.018419,105.8371848
230,Xôi Xoài Dì LOY - Phạm Ngọc Thạch,"P3B - B10 Ngõ 43 Phạm Ngọc Thạch, P.Kim Liên, Đống Đa, Hà Nội",,,21.0089865,105.8356528
231,Cơm Việt Gren Mart - Lạc Long Quân,"Số 10 Ngõ 127 Lạc Long Quân, P. Nghĩa Đô, Cầu Giấy, Hà Nội",,,21.0522325,105.8073798
232,Ăn Vặt Hồ Tây 음식 - Ăn Vặt - Lạc Long Quân,"4 Ngõ 472 Lạc Long Quân, P. Nhật Tân, Tây Hồ, Hà Nội",,,21.0724632,105.8131832
233,Tiến Thành - Mỳ Trộn Indomie - Võ Quý Huân,"Số 3 Ngõ 25 Võ Quý Huân, P. Phúc Diễn, Bắc Từ Liêm, Hà Nội",,,21.0486157,105.7495395
234,Bún Chả & Bún Đậu Bi Béo - Sài Đồng,"Số 8B Ngõ 100/17 Sài Đồng, P. Sài Đồng, Long Biên, Hà Nội",,,21.0373254,105.9118118
235,December Tea - Trà Hoa Quả Nhiệt Đới & Mì Trộn Indomie - Định Công,"SH6 Lavender, Ngõ 176 Định Công, P. Định Công, Hoàng Mai, Hà Nội",,,20.9833074,105.8359102
236,Bếp Nhà Châu - Eatclean & Healthy,"Số 84 Ngõ 32 Đỗ Đức Dục, P. Mễ Trì, Nam Từ Liêm, Hà Nội",,,21.0105369,105.7805521
237,Nhà Hàng Gimbab - Bibimbab - Nguyễn Trãi,"H1-3 Ngõ 445 Nguyễn Trãi, P. Thanh Xuân Nam, Thanh Xuân, Hà Nội",,,20.9905186,105.8026333
238,Phở Cuốn Trang Minh - Phú Diễn,"15 Ngõ 182 Phú Diễn, Bắc Từ Liêm, Hà Nội",,,21.0471207,105.7637001
239,"Tiểu Phàm - Chè, Sinh Tố & Nước Ép - Âu Cơ","Số Nhà 24 Ngõ 172 Đường Âu Cơ, Tây Hồ, Hà Nội",,,21.0658406,105.8311582
240,Gà Không Lối Thoát - Mẹt Gà Tuyển,"6G Ngõ 142 Nguyễn Đình Hoàn, P. Nghĩa Đô, Cầu Giấy, Hà Nội",,,21.040998,105.8051458
241,"54 Foods - Bánh Mì, Xôi & Cơm Thố - Mễ Trì Thượng","48 Mễ Trì Thượng, P. Mễ Trì, Nam Từ Liêm, Hà Nội",,,21.0058713,105.7768056
242,GÀ MẸT XÔI CHIM GÀ BÓ XÔI THU HOA - Ăn Vặt - Lê Trọng Tấn,"32A Ngõ 192 Lê Trọng Tấn, P. Định Công, Thanh Xuân, Hà Nội",,,20.9896021,105.8273207
243,Thuỷ Mít - Cơm Đảo Văn Phòng - Mỹ Đình,"152 Ngõ 322 Đường Mỹ Đình, Nam Từ Liêm, Hà Nội",,,21.0220627,105.7706375
244,Tiệm Bánh Guilty Pleasure - Su Kem Vỏ Giòn - Hà Đông,"Số 12 Ngõ 7 Phố Ao Sen, P. Mộ Lao, Hà Đông, Hà Nội",,,20.9842193,105.7888433
245,Bếp Nhà Gừng - Keto & More - Phùng Chí Kiên,"Số 40 Ngách 14 Ngõ 61 Phùng Chí Kiên, P. Nghĩa Đô, Cầu Giấy, Hà Nội",,,21.0408613,105.8037711
246,Cơm Gà Hải Thuỷ - Bún Đậu Mắm Tôm & Bún Chả,"12B Ngõ 1 Trần Văn Chuông, P. Yết Kiêu, Hà Đông, Hà Nội",,,20.9741088,105.7772072
247,"Tiệm Mỳ Online 24/7 - Mỳ Chua Cay, Mỳ Cay & Mỳ Trộn - 11 Ngõ 268/2 Ngọc Thụy","Phòng 604 Chung Cư Nhật Minh Anh, Số 11 Ngõ 268/2 Tổ 13 Phố Ngọc Thụy, P. Ngọc Thụy, Long Biên, Hà Nội",,,21.0635143,105.867417
248,Bánh Mì Cô Lan - 25 Bà Triệu,"25 Bà Triệu, P. Nguyễn Trãi, Hà Đông, Hà Nội",,,20.9682173,105.7822488
249,Thế Giới Khay Hoa Quả Gọt Sẵn - Bánh Mỳ Kẹp & Đồ Ăn Vặt - Thái Thịnh 1,"121 Thái Thịnh 1, P. Thịnh Quang, Đống Đa, Hà Nội",,,21.009144,105.81613
250,Hải Sản Đại Dương - Mực Khô & Trâu Gác Bếp - Ngõ 59 Mễ Trì,"16/59 Mễ Trì, P. Mễ Trì, Nam Từ Liêm, Hà Nội",,,21.0131097,105.777696
251,Nước Ép & Nước Cam Nguyên Chất - Top 1,"7 Ngách 47 Ngõ Thái Hà, P. Láng Hạ, Đống Đa, Hà Nội",,,21.0150085,105.8155223
252,Trà Bí Đao Cát Tiên - Lê Hồng Phong,"87 Lê Hồng Phong, P. Nguyễn Trãi, Hà Đông, Hà Nội",,,20.9680297,105.7767743
253,Trà Sữa Tiger Sugar - Mễ Trì Thượng,"37B Phố Mễ Trì Thượng, P. Mễ Trì, Nam Từ Liêm, Hà Nội",,,21.0060013,105.7789853
254,Quán Cơm Ngon - Cơm Rang Đùi Gà,"20 Ngõ 33 Phan Văn Trường, P. Dịch Vọng Hậu, Cầu Giấy, Hà Nội",,,21.0388553,105.7856551
255,Bánh Mì & Xôi Ngọc - Nguyễn Khang,"Đối Diện Số 265 Nguyễn Khang, P. Yên Hòa, Cầu Giấy, Hà Nội",,,21.0272618,105.7983571
256,Pizza Huu - Pizza & Spaghetti - Vĩnh Hưng,"124 Ngõ 179 Vĩnh Hưng, P. Vĩnh Hưng, Hoàng Mai, Hà Nội",,,20.9898436,105.8753587
257,Bún Đậu Mắm Tôm - 171 Hà Kế Tấn,"171 Hà Kế Tấn, P. Phương Liệt, Thanh Xuân, Hà Nội",,,20.9879268,105.8376129
258,Gà Rán & Gà Lắc Hương Vị Việt,"86 Kim Mã, Ba Đình, Hà Nội",,,21.0323651,105.8276334
259,Tmore - Tiệm Trà Chanh - Vĩnh Tuy,"Shop N05 - Ngõ 124 Vĩnh Tuy, P. Vĩnh Tuy, Hai Bà Trưng, Hà Nội",,,20.9992762,105.8769815
260,Sinh Tố & Nước Ép 90s - Xã Đàn,"76D Ngõ Xã Đàn 2, Đống Đa, Hà Nội",,,21.0169833,105.8306561
261,TocoToco Bích Hoà - Trà Sữa - Cụm Công Nghiệp Thanh Oai,"Cụm Công Nghiệp Thanh Oai, Hà Đông, Hà Nội",,,20.95709,105.7703287
262,Chick&go - Gà Rán & Pizza - Tân Mai,"Số 16 Ngõ 240 Tân Mai, P. Tân Mai, Hoàng Mai, Hà Nội",,,20.9799387,105.8496942
263,"GÀ MẸT NGON, GÀ CUỐN XÔI BÍCH HỢI - Lê Trọng Tấn","155A Ngõ 192 Lê Trọng Tấn, P. Định Công, Thanh Xuân, Hà Nội",,,20.9896021,105.8273207
264,Hương Tròn - Mì Trộn Indomie & Đồ Ăn Vặt - Bùi Xương Trạch,"81 Ngõ 1 Bùi Xương Trạch, P. Khương Đình, Thanh Xuân, Hà Nội",,,20.9926899,105.8196482
265,Gà Rán Thái Lan & Lạp Xưởng Nướng Đá - Yên Hòa,"204 Yên Hòa, Cầu Giấy, Hà Nội",,,21.0218044,105.790872
266,"Xôi Xéo, Bánh Chưng & Bánh Giò - Mộc Quán","3B Ngõ 167 Xuân Thủy, Dịch Vọng Hậu, Cầu Giấy, Hà Nội",,,21.0376928,105.7853855
267,Coffee CHU - Hồ Đắc Di,"2B/ 14 Hồ Đắc Di, P. Nam Đồng, Đống Đa, Hà Nội",,,21.0132891,105.8286801
268,Đồ Ăn Vặt & Cá Viên Chiên - Ngõ Cẩm Văn,"Số 6 Ngách 29 Ngõ Cẩm Văn, P. Hàng Bột, Đống Đa, Hà Nội",,,21.0211762,105.8287775
269,"Cơm Rang, Phở Bò Tiến Sen","28 Ngõ 120 Hoàng Mai, P. Hoàng Văn Thụ, Hoàng Mai, Hà Nội",,,20.9923605,105.8522516
270,Bombino’s Pizza - Sunshine Garden,"Shophouse S05A Toà G2 Sunshine Garden, Dương Văn Bé, Hai Bà Trưng, Hà Nội",,,20.9928257,105.8713628
271,Ăn Vặt Jerry - Ăn Vặt - 116 Khương Đình,"116 Khương Đình, P. Hạ Đình, Thanh Xuân, Hà Nội",,,20.9952017,105.8142397
272,Little Kitchen - Lẩu Thái & Đồ Thả Lẩu Ngon,"36B ngõ 58 Đào Tấn, P. Cống Vị, Ba Đình, Hà Nội",,,21.0340113,105.8080526
273,Thanh Hoa - Nem Nướng Nha Trang - Xuân La,"Số 6 ngõ 38 Xuân La, P. Xuân La, Tây Hồ, Hà Nội",,,21.0676576,105.8040681
274,Ngan Ngon - Ngan Cháy Tỏi Phố Cổ,"19B Ngõ 505 Trần Khát Chân, P. Thanh Nhàn, Hai Bà Trưng, Hà Nội",,,21.0081391,105.8522118
275,"Pha Lê Juice - Nước Ép Hoa Quả, Sinh Tố & Cafe - 42D Lý Thường Kiệt","42D Lý Thường Kiệt, P. Trần Hưng Đạo, Hoàn Kiếm, Hà Nội",,,21.0236239,105.8499846
276,Trà Sữa Nướng & Trà Hoa Quả - Tài Chính,"433 Xuân Đỉnh, Bắc Từ Liêm, Hà Nội",,,21.0736638,105.7888892
277,Gà Rán & Gà Ủ Muối Hoa Tiêu - Hoàng Ngân,"Số 1 Ngõ 80 Hoàng Ngân, P. Trung Hòa, Cầu Giấy, Hà Nội",,,21.0084238,105.809489
278,"Mixiu Food - Mì Trộn Indomie, Ăn Vặt & Trà - Định Công Hạ","Số 32 Hẻm 99/110/85 Định Công Hạ, P. Định Công, Hoàng Mai, Hà Nội",,,20.976945,105.8261476
279,Bánh Mì Cô Lan - 46 Chiến Thắng,"46 Chiến Thắng, P. Văn Quán, Hà Đông, Hà Nội",,,20.982717,105.7931036
280,Cá Hồi Ngâm Tương Hàn Quốc - S2 Fresh Food HN,"62E/358 Bùi Xương Trạch, P. Khương Đình, Thanh Xuân, Hà Nội",,,20.9853507,105.8164004
281,Thèm Quá(n) - Chân Gà Sả Tắc & Đồ Ăn Vặt - Vĩnh Tuy,"67 Ngõ 100 Nguyễn Văn Viên, Hai Bà Trưng, Hà Nội",,,21.0014959,105.872715
282,Ốc 29 - Ốc Hải Sản & Đồ Ăn Vặt - 90 Võ Thị Sáu,"Số 90 Võ Thị Sáu, Hai Bà Trưng, Hà Nội",,,21.0046243,105.8546829
283,Phượng Coffee - Đồ Uống - Cự Lộc,"Số 2 Cự Lộc ( Đối Diện Số 35 ) , Thanh Xuân, Hà Nội",,,20.999947,105.8144331
284,"Trúc Thanh Sài Gòn - Bánh Mỳ, Xôi Mặn & Mỳ Trộn - Kim Mã thượng","4 Ngõ 2 Kim Mã thượng, P. Cống Vị, Ba Đình, Hà Nội",,,21.0353982,105.8129878
285,Luca Food Shop - Mì Trộn Indomie & Đồ Ăn Vặt - Hào Nam,"10 Ngách 20/2 Ngõ 20 Hào Nam, P. Ô Chợ Dừa, Đống Đa, Hà Nội",,,21.0215647,105.8264868
286,Sữa Chua Bà Phương,"2 Ngách 54/9 Ngõ 54 Hoa Bằng, P. Yên Hoà, Cầu Giấy, Hà Nội",,,21.0267583,105.7955209
287,Gà Rán Taiwan Hot Chicken & Tea - Khương Trung,"261 Khương Trung, P. Khương Trung, Thanh Xuân, Hà Nội",,,20.9968809,105.8179701
288,Thanh Cảnh - Bánh Mì Chảo,"86/132 Phố Nguyên Xá, P. Minh Khai, (Đi Vào Ngõ 296 Cầu Diễn 100m Rẽ Phải 50m), Bắc Từ Liêm, Hà Nội",,,21.0543087,105.7398438
289,Quán Ăn Vặt Của Ba Bơ - Mỳ Trộn & Đồ Ăn Vặt - Đống Đa,"Số nhà 6 ngách 44/21 Nguyễn Phúc Lai, P. Ô Chợ Dừa, Đống Đa, Hà Nội",,,21.0225874,105.8220182
290,Dừa Xiêm & Mía Đá - Lê Thanh Nghị,"254 Lê Thanh Nghị, P. Đồng Tâm, Hai Bà Trưng, Hà Nội",,,21.0017915,105.8437857
291,Ngày Xưa Anh Béo - Bánh Giò - Trần Quang Diệu,"1G Trần Quang Diệu, P. Ô Chợ Dừa, Đống Đa, Hà Nội",,,21.0172385,105.8256192
292,"San Quán - Đồ Ăn Vặt Xiên Que, Mì Cay & Trà Chanh - Lê Đức Thọ","Số 6 Ngõ 7 Đường Lê Đức Thọ, P. Mỹ Đình 2, Nam Từ Liêm, Hà Nội",,,21.0354847,105.7709369
293,50 Dessert - Dừa Dầm & Kem Bơ,"50 Trần Xuân Soạn, Hai Bà Trưng, Hà Nội",,,21.0171053,105.8536035
294,Tiệm Mì Aji - Mì Trộn Indomie - Triều Khúc,"68/61 Triều Khúc, P. Tân Triều, Thanh Trì, Hà Nội",,,20.983518,105.800387
295,Bánh Bao Phomai ZaiZai - Tân Mai,"195 Tân Mai, P. Tân Mai, Hoàng Mai, Hà Nội",,,20.9817205,105.8498784
296,TAMA Coffee & Tea - Trà Chanh & Trà Sữa - Vân Canh,"Số 5 Liền Kề 22 Khu Đô Thị Vân Canh, Xã Vân Canh, Huyện Hoài Đức, Hà Nội, Hoài Đức, Hà Nội",,,21.0415248,105.7263945
297,Ngoạm - Xưởng Bánh Bao Tươi - Cửu Việt 2,"50 Cửu Việt 2, TT. Trâu Quỳ, Gia Lâm, Hà Nội",,,21.00985,105.9354943
298,"Musa Chicken - Gà Rán Giòn, Mì Trộn & Ăn Vặt","Số 10 Ngõ 994 Đường Láng, P. Láng Thượng, Đống Đa, Hà Nội",,,21.0229476,105.7999442
299,Nem Chua Rán 36 Tạm Thương Cơ Sở 1,"Số Nhà 5 Ngõ 5 Trần Nhật Duật, P. Quang Trung, Hà Đông, Hà Nội",,,20.9725134,105.7747688
300,"Bếp Của Dung - Gỏi Cuốn, Mì Trộn & Bún Trộn - Ngọc Hà","Số 14 Ngõ 70 Ngọc Hà, Ba Đình, Hà Nội",,,21.0378157,105.8282959
301,"Bánh Mì Sài Gòn - Bánh Mì, Bánh Bao & Trà Sữa - Nguyễn An Ninh","113 Nguyễn An Ninh, P. Tương Mai, Hoàng Mai, Hà Nội",,,20.9920949,105.8441259
302,"Jang Food - Gà Ủ Muối, Gà Luộc & Đồ Ăn Vặt - Cầu Diễn","Số 47 Ngõ 99 Cầu Diễn, P. Phú Diễn, Bắc Từ Liêm, Hà Nội",,,21.0447196,105.7492496
303,Bà Nghị - Bánh Mì Cay,"2 Ngõ 2 Hoa Lư, P. Lê Đại Hành, Hai Bà Trưng, Hà Nội",,,21.0112135,105.8462026
304,Lòng Ngon Quán - Định Công,"Số 2 Nghách 245/32/2A Định Công, Hoàng Mai, Hà Nội",,,20.9783382,105.8198367
305,Đinh Huyền - Hàu Sữa Online,"131 Ngõ 337 Định Công, Hoàng Mai, Hà Nội",,,20.9777022,105.8331808
306,Tiệm Healthy Food - Cơm Gạo Lứt & Salad - Trần Duy Hưng,"Số 38 Ngõ 91 Trần Duy Hưng, P. Trung Hòa, Cầu Giấy, Hà Nội",,,21.0102437,105.8013771
307,The Bali Coffee & Tea - Đồ Uống - Tô Hiệu,"Trung Tâm Thương Mại Mê Linh Plaza, Đường Tô Hiệu, P. Hà Cầu, Hà Đông, Hà Nội",,,20.9638733,105.7719003
308,Bánh Mì Chả Nóng Long Đỉnh - Nguỵ Như Kon Tum,"8A Ngõ 90 Ngụy Như Kon Tum, P. Thanh Xuân Trung, Thanh Xuân, Hà Nội",,,21.0000862,105.8028682
309,"Tiệm Bánh Gạo - Bánh Sinh Nhật, Bánh Ngọt & Bánh Mỳ - Trung Phụng","Số 26 Trung Phụng, P. Phương Liên, Đống Đa, Hà Nội",,,21.0151077,105.8385705
310,Tiệm Gà Ủ Muối - Gà Luộc & Gà Ủ Muối - Nguyễn Viết Xuân,"23 Nguyễn Viết Xuân, Làng La Khê, Hà Đông, Hà Nội",,,20.9702971,105.7734511
311,"Gà Rán, Cơm Tấm & Bánh Mì Đò Quan","119 Bùi Xương Trạch, P. Khương Đình, Thanh Xuân, Hà Nội",,,20.9892426,105.8179468
312,Trà Sữa HAPPY - KĐT Đô Nghĩa,"U08-L70 KĐT Đô Nghĩa, Yên Lộ, P. Yên Nghĩa, Hà Đông, Hà Nội",,,20.9570705,105.7373505
313,"Gia Hân - Quẩy Đùi Gà, Bánh Tiêu & Bánh Rán Phố Cổ","Số 431 Ngõ 192 Lê Trọng Tấn, P. Định Công, Thanh Xuân, Hà Nội",,,20.9896021,105.8273207
314,Cô Hân - Phở Bò & Cơm Rang,"361 Lĩnh Nam, P. Lĩnh Nam, Hoàng Mai, Hà Nội",,,20.9832207,105.8765583
315,Bún Đậu Mắm Tôm - Chính Kinh,"5 Ngõ 12 Chính Kinh, P. Nhân Chính, Thanh Xuân, Hà Nội",,,20.9990792,105.8117069
316,Cơm Rang Đảo Giòn - Cơm Rang - Vũ Tông Phan,"Ngõ 509/68 Phố Vũ Tông Phan, P. Khương Đình, Thanh Xuân, Hà Nội",,,20.9853565,105.8158319
317,Hương Tươi Quán - Phở Cuốn & Nem Cuốn - Ngọc Lâm,"15 Ngõ 154 Ngọc Lâm, P. Ngọc Lâm, Long Biên, Hà Nội",,,21.0455524,105.8707353
318,"Bánh Mì Quốc Dân - Bánh Mì Chảo, Bittet & Xôi - Sài Đồng","82 Ngõ 42 Sài Đồng, Long Biên, Hà Nội",,,21.0327859,105.9123552
319,Royaltea - Phú Diễn,"Số 41 Ngõ 187 Phú Diễn, P. Phú Diễn, Bắc Từ Liêm, Hà Nội",,,21.0474619,105.7630523
320,"Fami Food - Đồ Ăn Vặt, Nem Chua Rán & Viên Chiên Nước Mắm - Cầu Giấy","17A Ngách 56 Ngõ 79 Cầu Giấy, P. Yên Hòa, Cầu Giấy, Hà Nội",,,21.0294001,105.7990005
321,"Đồ Ăn Vặt, Chân Gà Sốt Thái & Chân Gà Sả Tắc - Dâu Food - Cầu Giấy","Số 17 Ngách 56 Ngõ 79 đường Cầu Giấy, Cầu Giấy, Hà Nội",,,21.0305672,105.8001708
322,Trần Đặng - Xôi Mặn & Cơm Văn Phòng - Lâm Hạ,"4A Ngõ 111/47 Lâm Hạ, P. Bồ Đề, Long Biên, Hà Nội",,,21.0386572,105.8822128
323,"Cơm Thố Delichi - Cơm Thố Gà, Xá Xíu - Nghĩa Tân","11 Ngõ 1 Nghĩa Tân, Cầu Giấy, Hà Nội",,,21.0454228,105.7954922
324,Chân Gà Nướng 79 - Định Công,"209D Định Công, P. Định Công, Hoàng Mai, Hà Nội",,,20.9829788,105.8349562
325,HS - Bún Đậu Mắm Tôm & Nem Nướng Nha Trang,"Số 36 Ngách 136/6 Triều Khúc, X.Tân Triều, Thanh Trì, Hà Nội",,,20.9814583,105.7986565
326,Bún Đậu Mắm Tôm Phan Hưng - Phan Văn Trường,"Số 18 ngõ 33 Phan Văn Trường, P. Dịch Vọng Hậu, Cầu Giấy, Hà Nội",,,21.0388568,105.7856529
327,Shiba Chef - Bánh Takoyaki & Bánh Xèo Nhật,"Ngách 37 Ngõ 167 Tây Sơn, P. Quang Trung, Đống Đa, Hà Nội",,,21.0106334,105.8273384
328,Bánh Mì Bắp - Gà Popcorn & Bánh Mì Gà Nem - Trần Quang Diệu,"Số 69 Ngõ 71 Trần Quang Diệu, P. Quang Trung, Đống Đa, Hà Nội",,,21.0144981,105.823998
329,"Panda - Pizza, Gà Rán & Cơm Thố - Trần Quốc Vượng","38 Ngõ 63 Trần Quốc Vượng, P. Dịch Vọng Hậu, Cầu Giấy, Hà Nội",,,21.0339043,105.7856328
330,BINGO - Tiệm Cafe Muối - Nguyễn Tuân,"164 Nguyễn Tuân, P. Nhân Chính, Thanh Xuân, Hà Nội",,,20.9992214,105.8029285
331,Linh Phương - Nem Nướng Nha Trang - Bạch Đằng,"195 Bạch Đằng, Hoàn Kiếm, Hà Nội",,,21.0291668,105.8604279
332,Quán Ăn Hợp Tác Xã & Cơm Niêu - Tây Sơn,"15 Ngõ 252 Tây Sơn, P. Trung Liệt, Đống Đa, Hà Nội",,,21.0080763,105.8233308
333,Cơm Văn Phòng - Phú Cường - Mỹ Đình,"59 Ngõ 20 Mỹ Đình , Nam Từ Liêm, Hà Nội",,,21.0319785,105.7724986
334,Bánh Mì Que - Đặc Sản Hải Phòng - Phạm Ngọc Thạch,"Số 8, Ngõ 97 Phạm Ngọc Thạch( Đi Vào 15m), P. Trung Tự, Đống Đa, Hà Nội",,,21.0070313,105.8333471
335,Bánh Mỳ Tổ Dân - Bánh Mì - Lương Ngọc Quyến,"22/22 Lương Ngọc Quyến, P. Hàng Bồ, Hoàn Kiếm, Hà Nội",,,21.0348007,105.8526301
336,Bánh Mì Sài Gòn - Nhật Minh - Yên Hòa,"233 Yên Hòa, Cầu Giấy, Hà Nội",,,21.0218044,105.790872
337,InSky Coffee And Fastfood - Đội Cấn,"81 Đội Cấn, Ba Đình, Hà Nội",,,21.0346137,105.8296548
338,Hẻm Hàn Quốc - Đồ Ăn Hàn Quốc - 147 Lê Văn Hiến,"147 Lê Văn Hiến, P. Đức Thắng, Bắc Từ Liêm, Hà Nội",,,21.0747919,105.7723536
339,Gà Rán Five Star - Thành Công,"102 C10 Thành Công, P. Thành Công, Ba Đình, Hà Nội",,,21.0208602,105.8141871
340,Deep Sii - 19 Ngô Văn Sở,"19 Ngô Văn Sở, Hoàn Kiếm, Hà Nội",,,21.0207215,105.8488649
341,Nem Nướng & Mì Trộn - Bếp Nhà Bắp,"43 Ngõ 99 Cầu Diễn, P. Phúc Diễn, Bắc Từ Liêm, Hà Nội",,,21.0446995,105.7496732
342,Gà Sốt Cay Hàn Quốc - Nguyễn Trãi,"63 Ngõ 335 Nguyễn Trãi, P. Thanh Xuân Nam, Thanh Xuân, Hà Nội",,,20.9910273,105.8038534
343,CocoLife - Kem Bơ & Đồ Ăn Vặt Hàn Quốc - Vinhome OceanPark1,"Toà S203 Vinhome OceanPark1, Gia Lâm, Hà Nội",,,20.9913406,105.9395699
344,ĐỒ ĂN VẶT 24H LĨNH NAM - Đồ Ăn Vặt - Lĩnh Nam,"6 Ngõ 255/11 Lĩnh Nam, P. Vĩnh Hưng, Hoàng Mai, Hà Nội",,,20.9847687,105.8737878
345,Tiệm Trà Trái Cây - Hoa Quả Tươi & Đồ Ăn Vặt,"Số 61 Ngách 32/48 Đỗ Đức Dục, P. Mễ Trì, Nam Từ Liêm, Hà Nội",,,21.0109319,105.7825489
346,Mầm - Trà Pha Máy Đậm Vị - Tam Khương,"Tầng 7 Số 28 Ngõ 21 Tam Khương, P. Khương Thượng, Đống Đa, Hà Nội",,,21.0044989,105.8290642
347,Cơm Tám Điện Biên - Cầu Giấy,"Số 5B, Ngõ 79/56/8 Cầu Giấy, P. Yên Hòa, Cầu Giấy, Hà Nội",,,21.029332,105.803456
348,Cà Phê Muối Diệp Anh - Nước Ép & Sinh Tố - Mỹ Đình,"Số Nhà 1 Ngõ 322/139 Đường Mỹ Đình, P. Mỹ Đình 1, Nam Từ Liêm, Hà Nội",,,21.0221763,105.7758197
349,Bún Chả Hàng Than - Bún Mọc Sườn Chua Chuẩn Vị Phố - Tây Mỗ,"Số Nhà 8, Ngõ 43 Đường Cầu Cốc, Nam Từ Liêm, Hà Nội",,,21.0036852,105.7466911
350,Grape - Nước Nho Tươi 100% - Khâm Thiên,"262 Khâm Thiên, P. Thổ Quan, Đống Đa, Hà Nội",,,21.0193393,105.834438
351,BẾP NHỎ INDO - Mỳ Trộn & Đồ Ăn Vặt - Vũ Ngọc Phan,"126 Ngõ 25 Vũ Ngọc Phan, P. Láng Hạ, Đống Đa, Hà Nội",,,21.0152118,105.8076414
352,Chân Gà Bay Online,"105 Ngõ i5, P. Thanh Xuân Bắc, Thanh Xuân, Hà Nội",,,20.9956572,105.7985431
353,Choux Juice - Trà Hoa Quả & Nước Ép Nguyên Chất - Nguyễn Xiển,"Số 1 - Sunrise B - KĐT The Manor Central Park, P. Đại Kim, Hoàng Mai, Hà Nội",,,20.9751144,105.8147382
354,Lẩu Thái Tomyum Tặng 1 Đĩa Bò Tươi - Nhà Hàng Ông Tào Mập,"BT18 TT12 KĐT Mới Văn Quán, P. Phúc La, Hà Đông, Hà Nội",,,20.9654323,105.7894045
355,Mye Diet - Salad & Cơm Gạo Lứt - Lương Sử C,"Số 65 Lương Sử C, P. Văn Chương, Đống Đa, Hà Nội",,,21.0346966,105.8513013
356,Long Wang Cơ Sở 1 - Dim Sum Hongkong - 84 Ngọc Khánh,"84 Ngọc Khánh, P. Giảng Võ, Ba Đình, Hà Nội",,,21.0244917,105.8194618
357,Trà Sữa Tiger Sugar - Yên Hòa,"50 Yên Hòa, P. Trung Hòa, Cầu Giấy, Hà Nội",,,21.0156167,105.8007117
358,Bằng Giang Vịt Quay Vân Đình - Minh Khai,"116B Ngõ 254 - Minh Khai, P. Mai Động, Hoàng Mai, Hà Nội",,,20.9920197,105.8587082
359,Bôn Bôn - Xoài Cóc Dầm & Đồ Ăn Vặt Online,"107B G4 Ngõ 12 Nguyên Hồng, P. Thành Công (Vào ngõ 12 rồi rẽ trái ở cafe IRIS, đi qua sân chơi vào tới nhà để xe (nhà xe bên tay trái, số 107B tay phải), Ba Đình, Hà Nội",,,,
360,Gà Rán Seoul - Phố Xa La,"Số 26 Phố Xa La, P. Phúc La, Hà Đông, Hà Nội",,,20.9647414,105.7896187
361,Chè Ngon Mẹ Tép - Chè & Sữa Chua Các Loại Online,"258 Mễ Trì Thượng, P. Mễ Trì, Nam Từ Liêm, Hà Nội",,,21.0093545,105.7775622
362,BÁNH MÌ SÀI GÒN TUẤN KHANG - Bánh Mì & Hambuger - 76 Bạch Mai,"76 Bạch Mai, P. Cầu Dền, Hai Bà Trưng, Hà Nội",,,21.0066449,105.851209
363,Nem Chua Rán Trần Công Châu - Top 1,"7 Ngách 49 Ngõ Thái Hà, Đường Thái Hà, P. Láng Hạ, Đống Đa, Hà Nội",,,21.0156311,105.8157958
364,Nem Chua Thanh Hóa - Shop Online - Minh Khai,"10 Ngõ 254 Minh Khai, P. Minh Khai, Hai Bà Trưng, Hà Nội",,,20.994586,105.8583927
365,Gà Rán Bốp Bi,"234 Thụy Khuê, P. Thụy Khuê, Tây Hồ, Hà Nội",,,21.0437081,105.8200056
366,Gà ủ muối V-food - Gà Ủ Muối - Lê Quang Đạo,"8/11/36/19 Lê Quang Đạo, P. Phú Đô, Nam Từ Liêm, Hà Nội",,,21.0124253,105.7683317
367,Mì Trộn Đây - Đồ Ăn Vặt - Hoa Bằng,"181 Hoa Bằng, P.Yên Hòa, Cầu Giấy, Hà Nội",,,21.0272133,105.7970514
368,Teen's Food - Bánh Mì Doner Kebab & Các Món Ăn Vặt - 17 Võng Thị,"Số 17 Võng Thị, P. Bưởi, Tây Hồ, Hà Nội",,,21.0515685,105.8107531
369,"Trình Food - Cháo Gà, Súp Gà & Mỳ Xào - Trung Kính","Số 4 Ngõ 43/98 Trung Kính, Cầu Giấy, Hà Nội",,,21.0119479,105.7980772
370,Bánh Mì Nướng Muối Ớt & Bánh Tráng Trộn - Con Chim Non,"118 Dương Quảng Hàm, P. Quan Hoa, Cầu Giấy, Hà Nội",,,21.0357813,105.8007948
371,Lâm Cơm Rang & Phở Bò - 20 Ngõ 87 Yên Xá,"Số 20 Ngõ 87 Yên Xá, X. Tân Triều, Thanh Trì, Hà Nội",,,20.9689154,105.7965799
372,Ngọc Diệp - Bánh Mì Sốt Vang,"Sảnh A3 Chung Cư 151A Nguyễn Đức Cảnh, Hoàng Mai, Hà Nội",,,20.9878861,105.8518131
373,Bubble Greek Yogurt - Sữa Chua Hy Lạp,"14 Hàng Buồm, P. Hàng Buồm, Hoàn Kiếm, Hà Nội",,,21.0356133,105.8509603
374,Teen Food - Nem Chua Rán Chị Hạnh - Dương Khuê,"69 Dương Khuê, P. Mai Dịch, Cầu Giấy, Hà Nội",,,21.035175,105.7732863
375,Thu Hường Cake - Trương Định,"87 Trương Định, P. Trương Định, Hai Bà Trưng, Hà Nội",,,20.9937581,105.8496875
376,Cơm Gà Tươi Cô Yến & Cơm Văn Phòng - KĐT Geleximco,"Số 02 Lô A43 Khu Đô Thị Geleximco, Lê Trọng Tấn, X. An Khánh, Hoài Đức, Hà Nội",,,21.006855,105.731733
377,Bếp CiCi - Mì Trộn & Đồ Ăn Vặt Online - Quan Nhân,"Số 34 Ngõ 144 Quan Nhân, P. Nhân Chính, Thanh Xuân, Hà Nội",,,21.00398,105.8098479
378,Phở Bò & Cơm Rang Số 1 - Phan Phù Tiên,"1 Phan Phù Tiên, P. Cát Linh, Đống Đa, Hà Nội",,,21.028078,105.833673
379,Bếp Bé Bếu - Cơm & Bánh Mì Nướng Trung Hoa - Phạm Ngọc Thạch,"58 Phạm Ngọc Thạch, Đống Đa, Hà Nội",,,21.0075221,105.8324527
380,Bún Trộn Hoàng Phố - Hồ Tùng Mậu,"26 Ngõ 66 Hồ Tùng Mậu, P. Mai Dịch, Cầu Giấy, Hà Nội",,,21.038464,105.7775908
381,Hải Yến - Bánh Cuốn - Nghĩa Tân,"106A8 Khu Tập Thể Nghĩa Tân, P. Nghia Tan, Cầu Giấy, Hà Nội",,,21.0434009,105.7923394
382,Thành Nam - Phở & Cơm Rang,"Ki Ốt 13 Ngõ 560 Nguyễn Văn Cừ, P. Ngọc Lâm, Long Biên, Hà Nội",,,21.0485538,105.8838101
383,"Tiger - Coffee, Nước Ép & Trà Chanh - 50 Trương Công Giai","50 Trương Công Giai, Cầu Giấy, Hà Nội",,,21.0338413,105.7903278
384,Cơm Đảo Ngũ Vị 686 - Lê Văn Hiến,"Kiot 2 Ngõ 44 Lê Văn Hiến, P. Đức Thắng, Bắc Từ Liêm, Hà Nội",,,21.0750988,105.7743426
385,Thuỷ Mít - Cơm Rang & Phở Xào - Mỹ Đình,"141 Ngõ 322 Mỹ Đình, P. Mỹ Đình, Nam Từ Liêm, Hà Nội",,,21.0218863,105.7706268
386,Nhà Họ Chu - Chân Gà sốt Thái - Vinhomes Smart City,"Sảnh S201 Vinhomes Smart City, Nam Từ Liêm, Hà Nội",,,21.0071028,105.7369957
387,Bún Thái Tomyom & Mỳ Tomyom - Tiệm 1991,"Số 7 Ngõ 191 Minh Khai, P. Bạch Mai, Hai Bà Trưng, Hà Nội",,,20.9960864,105.858729
388,"Nước Ép, Trà Sữa & Bánh Tráng - Tú Anh","93 Ngõ 179 Vĩnh Hưng, P. Vĩnh Hưng, Hoàng Mai, Hà Nội",,,20.9884198,105.8753749
389,"Thạch Dừa Đồng Tháp - Cà Phê, Sinh Tố & Kem Trái Dừa","36 Nguyễn Chí Thanh, P. Ngọc Khánh, Ba Đình, Hà Nội",,,21.0256207,105.8112238
390,"Bếp Nam Anh - Xôi, Bánh Khúc & Bánh Bao - Số 9 Nghĩa Lộ","Số Nhà 9 Đường Nghĩa Lộ (Tổ 5 Yên Nghĩa), P. Yên Nghĩa, Hà Đông, Hà Nội",,,20.949066,105.7425005
391,Mì Cay Tomyum & Mì Tương Đen - Thiên Trù Noodles,"Số 14 Ngõ 273 Phố Vũ Hữu, P. Thanh Xuân Bắc, Thanh Xuân, Hà Nội",,,20.994665,105.7967566
392,LẨU ẾCH ĐỒNG - La Thành,"668 La Thành, P. Giảng Võ, Ba Đình, Hà Nội",,,21.0239581,105.8168091
393,Gimbab Hàn Quốc - Nguyễn Trãi,"Phòng 103 Nhà H1-3 Ngõ 445 Nguyễn Trãi, P. Thanh Xuân Nam, Thanh Xuân, Hà Nội",,,20.9901674,105.8028627
394,Tiệm Cơm Mẹ Nấu - Cơm Văn Phòng Chất - Đường Láng,"Số Nhà 18 Ngõ 242 Đường Láng, P. Thịnh Quang, Đống Đa, Hà Nội",,,21.0071253,105.8168868
395,Mỳ Cay & Cơm Chiên - Ăn Vặt Tiệm 1991,"19B Ngõ 124 Phố Vĩnh Tuy, Hai Bà Trưng, Hà Nội",,,20.9998157,105.8791366
396,Otochick - Món Ăn Đường Phố Hàn Quốc - The Garden,"Siêu Thị Tops Market The Garden, Mễ Trì, Nam Từ Liêm, Hà Nội",,,21.0153369,105.777832
397,"Bảo Phong - Phở Bò, Cơm Rang & Mì Xào - 142 Mai Dịch","142 Mai Dịch, Cầu Giấy, Hà Nội",,,21.0395659,105.7740712
398,"Đức Mạnh - Chân Gà Sốt Thái Sả Tắc, Gà Rán & Bánh Tráng - Quan Hoa","Số 30 Ngách 1 Ngõ 225 Quan Hoa, P. Quan Hoa, Cầu Giấy, Hà Nội",,,21.0363075,105.8052222
399,Bánh Bò A Trí - Bánh Dân Gian - Phan Văn Trường,"Số 25 Ngõ 25 Phan Văn Trường, P. Dịch Vọng Hậu, Cầu Giấy, Hà Nội",,,21.0382943,105.7855704
400,GINGAYA - TIỆM ĂN HEALTHY EATCLEAN - DƯƠNG QUẢNG HÀM,"22B Ngách 24 Ngõ 79 Dương Quảng Hàm, P. Quan Hoa, Cầu Giấy, Hà Nội",,,21.0349286,105.7991686
401,Nem Nướng Nha Trang - Tiệm Nem Chỉn Chu - 14/162 Khương Trung,"Số Nhà 14 Ngõ 162 Khương Trung, Thanh Xuân, Hà Nội",,,20.9951132,105.8169679
402,Bún Ốc Bà Giao Bạch Mai - 17 Ngõ 30 Hồng Mai,"17 Ngõ 30 Hồng Mai, P. Bạch Mai, Hai Bà Trưng, Hà Nội",,,20.9986306,105.8510589
403,"Cơm, Gà Rán & Mì Trộn Bếp Nhà Cám","91A Nguyễn Khuyến, P. Văn Miếu, Đống Đa, Hà Nội",,,21.0287046,105.8364542
404,Mr.Eco Cơm Gạo Lứt - Healthy Food - Cầu Giấy,"113 Ngõ 68 Đ. Cầu Giấy, P. Quan Hoa, Cầu Giấy, Hà Nội",,,21.0343914,105.8030926
405,Cat Food - Mì Trộn Indomie - 358 Bùi Xương Trạch,"3B Ngõ 358/55/3 Bùi Xương Trạch, P. Khương Đình, Thanh Xuân, Hà Nội",,,20.9910022,105.817857
406,Tiệm Cà Phê Sâu Sâu - Cà Phê Muối - KĐT Định Công,"Toà CT1B-ĐN1 Khu Đô Thị Định Công, P. Định Công, Hoàng Mai, Hà Nội",,,20.9847632,105.8292801
407,Nem Nướng Nha Trang Chính Gốc - Thái Hà,"19B Ngõ 98 Thái Hà, P. Trung Liệt, Đống Đa, Hà Nội",,,21.0119269,105.8225065
408,Greenarch Cafe,"Tầng 1 Tòa Nhà Hồng Hà - Số 25 Lý Thường Kiệt, P. Phan Chu Trinh, Hoàn Kiếm, Hà Nội",,,21.0219404,105.8548415
409,Mập Quán - Đồ Ăn Vặt & Mỳ Xào - Nguyên Hồng,"Số 6 Ngõ 2A Nguyên Hồng, P. Thành Công, Ba Đình, Hà Nội",,,21.0238936,105.8128336
410,"Madam Trang - Cafe, Nước Ép & Bánh Mì - 23G Hai Bà Trưng","23G Hai Bà Trưng, Hoàn Kiếm, Hà Nội",,,21.0243639,105.853325
411,Trà Sữa Royaltea - Xuân Đỉnh,"33 Ngõ 355 Xuân Đỉnh, Bắc Từ Liêm, Hà Nội",,,21.0711569,105.7896223
412,KSdomi - Mì Trộn Indomie & Mì Cay - Trung Văn,"Số 4 Trung Văn, Nam Từ Liêm, Hà Nội",,,20.9934184,105.7783115
413,Ăn Vặt Hiệp Gà - Đường Láng,"11 Ngõ 850 Đường Láng, Đống Đa, Hà Nội",,,21.0194936,105.8031967
414,"An’s Kitchen - Mì Ý, Mì Trộn & Đồ Ăn Vặt","Số Nhà 2, Ngõ 250/100/31 Kim Giang, P. Đại Kim, Hoàng Mai, Hà Nội",,,20.9785671,105.817483
415,DLC Kitchen - Bún Cá Măng Cay - Vườn Cam,"88 Đường Vườn Cam, P. Phú Đô, Nam Từ Liêm, Hà Nội",,,21.0135615,105.7723829
416,"Tích Chu - Mì Cay, Nem Nướng & Trà Hoa Quả - 182 Tây Sơn","182 Tây Sơn, Đống Đa, Hà Nội",,,21.0102844,105.8247289
417,"Gà Bó Xôi, Gà Ủ Muối & Đồ Ăn Vặt - Lê Trọng Tấn","104 Ngõ 192 Lê Trọng Tấn, P. Định Công, Hoàng Mai, Hà Nội",,,20.9896021,105.8273207
418,Cháo Sườn Sụn 18 - Cháo Gia Truyền - Nguyễn Đức Cảnh,"7 Ngõ 47 Nguyễn Đức Cảnh, P. Tương Mai, Hoàng Mai, Hà Nội",,,20.9880202,105.8485211
419,"Bánh Tráng Huyền Linh - Bánh Tráng Trộn, Bánh Tráng Nướng & Bánh Tráng Cuộn - 68 Triều Khúc","Số 1 Ngõ 68 Triều Khúc, X. Tân Triều, Thanh Trì, Hà Nội",,,20.9834747,105.8003114
420,Tiệm Trà Hoa Quả Nhiệt Đới Đặc Biệt Hưng Vượng Ngọc,"3 Ngõ 402 Ngách 76/20 Mỹ Đình, P. Mỹ Đình 2, Nam Từ Liêm, Hà Nội",,,21.0324412,105.7723591
421,GÀ Ủ MUỐI HOA TIÊU & GÀ LUỘC - LULU CHICKEN - 89 PHẠM VĂN ĐỒNG,"15 ngõ 89 Phạm Văn Đồng, P. Mai Dịch, Cầu Giấy, Hà Nội",,,21.0435261,105.7802704
422,"Đi Ăn Chay Đi - Cơm Chay, Bún & Bánh Mì Chay - 36 Pháo Đài Láng","36 Pháo Đài Láng, P. Láng Thượng, Đống Đa, Hà Nội",,,21.0207256,105.8058575
423,Ninh Vũ Tea & Coffee - Trà Hoa Quả Nhiệt Đới Siêu Ngon - Kim Đồng,"Số Nhà 43 Ngõ 19 Kim Đồng, P. Giáp Bát, Hoàng Mai, Hà Nội",,,20.9853117,105.8424492
424,Bún Đậu Trâm 63 - Bún Đậu Mắm Tôm - Nguyễn Ngọc Vũ,"Số 1 Ngách 219/61 Nguyễn Ngọc Vũ, Cầu Giấy, Hà Nội",,,21.0124578,105.8051018
425,Tiệm Trà Mãng Cầu Đặc Biệt Hana - Mỹ Đình,"3 Ngõ 402 Ngách 76/20 Mỹ Đình, P. Mỹ Đình 1, Nam Từ Liêm, Hà Nội",,,21.0324412,105.7723591
426,Hachi Takoyaki - Phan Chu Trinh,"107 Phan Chu Trinh, P.Yết Kiêu, Hà Đông, Hà Nội",,,20.9739346,105.7771724
427,Tiệm Bánh Youth Cake - Bông Lan Trứng Muối & Red Velvet,"5 ngõ 40 Chính Kinh, P. Nhân Chính, Thanh Xuân, Hà Nội",,,21.0000484,105.811762
428,Tiệm Gà Ủ Muối KuBo - Lĩnh Nam,"3 Ngách 21 Ngõ 595 Lĩnh Nam, P. Lĩnh Nam, Hoàng Mai, Hà Nội",,,20.9804269,105.8871161
429,Gia Bảo Nem Nướng Nha Trang,"Số Nhà 77 Ngõ 219 Nguyễn Ngọc Vũ, (Cũng là ngõ 23 Nguyễn Thị Định), P. Trung Hòa, Cầu Giấy, Hà Nội",,,21.0123015,105.8044225
430,Linh - Cari Gà & Ăn Vặt Hàn Quốc,"88 Trần Đại Nghĩa, P. Đồng Tâm, Hai Bà Trưng, Hà Nội",,,20.9984343,105.8457378
431,2PAO - Bánh Bao Tươi & Mỳ Trộn Indomie - Đức Giang,"28 Ngõ 81 Đức Giang, P. Đức Giang, Long Biên, Hà Nội",,,21.0683321,105.8885179
432,Quán Chè Ánh Tuyết,"150/50 Phố Tân Khai, Hoàng Mai, Hà Nội",,,20.9915757,105.8727268
433,Trà Sữa Taster's Choice - Hà Đông,"Sảnh CT1 - Chung Cư ICID Complex Lê Trọng Tấn, P. Dương Nội, Hà Đông, Hà Nội",,,20.9826245,105.7427643
434,Kitch & Caf - Cơm & Thức Uống Việt Nam - 41 Lê Đại Hành,"41 Lê Đại Hành, Hai Bà Trưng, Hà Nội",,,21.0112763,105.8483085
435,Matcha Shop - Coffee - Hà Nội,"Ngõ 73 Giang Văn Minh, Ba Đình, Hà Nội",,,21.0338181,105.8267628
436,Quý Gà Ủ Muối Hoa Tiêu & Gà Hấp - Tô Hiến Thành,"95 Tô Hiến Thành, P. Phúc La, Hà Đông, Hà Nội",,,20.9706887,105.7847822
437,B9 - Cháo Sườn Sụn - Nguyễn Cảnh Dị,"B9 Nguyễn Cảnh Dị, P. Đại Kim, Hoàng Mai, Hà Nội",,,20.9752053,105.8363949
438,"Wake Strong - Trà, Cafe Nướng Tre Đầu Tiên - Ba Đình","88 Nghĩa Dũng, Ba Đình, Hà Nội",,,21.0478726,105.847014
439,"Shushi - Gỏi Cuốn, Nem Nướng, Phở Cuốn Gà & Mỳ Ý Bánh Tôm","6B Ngách 39 Ngõ 381 Nguyễn Khang, P. Yên Hòa, Cầu Giấy, Hà Nội",,,21.0270113,105.7979081
440,"Dơm - Vua Bánh Tráng Nướng, Cuộn & Trộn - 29/3 Phạm Tuấn Tài","29 Ngõ 3 Phạm Tuấn Tài, P. Dịch Vọng Hậu, Cầu Giấy, Hà Nội",,,21.0433889,105.7853445
441,Cake Cà Kê - 17 Quán Thánh,"17 Quán Thánh, P. Quán Thánh, Ba Đình, Hà Nội",,,21.0426158,105.8413594
442,"Grille6 - Salad, Steak & Pasta - Hào Nam","184 Hào Nam, P. Ô Chợ Dừa, Đống Đa, Hà Nội",,,21.0273177,105.827728
443,Bánh Gối & Bánh Tôm - Anh Bối Mỏ Ướt - Phố Vọng,"1 Ngách 3 Ngõ 333 Phố Vọng, P. Trương Định, Hai Bà Trưng, Hà Nội",,,20.9938909,105.8420379
444,Aha Coffee - Vinhomes Smart City,"SH01 Toà S201 Vinhomes Smart City, P. Tây Mỗ, Nam Từ Liêm, Hà Nội",,,21.0071028,105.7369957
445,"Trà Trái Cây, Nước Ép Hoa Quả - Lê Quang Đạo","Số 5 ngách 8/167 Lê Quang Đạo, P. Phú Đô, Nam Từ Liêm, Hà Nội",,,21.0134275,105.7698224
446,"Mì Trộn Indomie, Lẩu Ly & Đồ Ăn Vặt - BBQAtHome - Láng Hạ","Số 14 ngách 25/7 Vũ Ngọc Phan, P. Láng Hạ, Đống Đa, Hà Nội",,,21.0136281,105.8099612
447,Nấm Food - Mì Trộn Indomie & Trà Sữa - Nguyễn Lân,"5/14 Nguyễn Lân, P. Phương Liệt, Thanh Xuân, Hà Nội",,,20.9944987,105.8362762
448,Vịt Quay Thu Phú,"10A3 Ngách 10 Ngõ 376 Khương Đình, Thanh Xuân, Hà Nội",,,20.9884463,105.8123692
449,Mai Trang - Ốc & Ăn Vặt,"Số 8 Ngõ 38 Khúc Thừa Dụ, P. Dịch Vọng, Cầu Giấy, Hà Nội",,,21.033874,105.7920893
450,"HOA QUẢ CẮT SẴN, NƯỚC ÉP & SỮA CHUA DẦM - Định Công Thượng","Số 124 Ngõ 230 Định Công Thượng, Hoàng Mai, Hà Nội",,,20.9815251,105.8221296
451,Amor Healthy - Salad & Healthy Food - Nguyên Hồng,"Số 2, 1 Ngách 1 Ngõ 26 Nguyên Hồng, P. Láng Hạ, Đống Đa, Hà Nội",,,21.017501,105.8109778
452,Bánh Chuối Mikey - Phan Đình Giót,"LK16/6 Ngõ Chợ Bông Đỏ - Phan Đình Giót, P. La Khê, Hà Đông, Hà Nội",,,20.9668754,105.7661299
453,Lẩu Ly Thái Tomyum & Mì Trộn Đặc Biệt - Ba Food - Khương Hạ,"8D Ngõ 29/62 Khương Hạ, P. Khương Đình, Thanh Xuân, Hà Nội",,,20.9895241,105.8152565
454,F Café - Tố Hữu,"Số 4 Galaxy 1, 69 Tố Hữu, P. Vạn Phúc, Hà Đông, Hà Nội",,,20.9799361,105.7664147
455,Trà Sữa Bobapop - Đại Cồ Việt,"9 Đại Cồ Việt, Hai Bà Trưng, Hà Nội",,,21.008532,105.8509827
456,"Bảo Ngọc - Nem Chua Thanh Hoá, Thịt Chua Trường Foods & Đồ Ăn Vặt","Số 57 Ngõ 20 Mỹ Đình, P. Mỹ Đình 2, Nam Từ Liêm, Hà Nội",,,21.031949,105.7725146
457,"XINYI - Cơm Vịt Quay, Gà Nướng & Chè Kem Đài Loan - Nguyễn Văn Trỗi","197 Nguyễn Văn Trỗi, P. Mộ Lao, Hà Đông, Hà Nội",,,20.9839797,105.7849648
458,Mì Cay Siêu Ngon - Chân Gà & Gà Ủ Muối,"Đối Diện Nhà 14B7 Khu Tập Thể 918 Phúc Đồng, P. Phúc Đồng, Long Biên, Hà Nội",,,21.0375853,105.8971859
459,Bún Đậu Mẹt Phố Cổ - Định Công Hạ,"17/56 Định Công Hạ, P. Định Công, Hoàng Mai, Hà Nội",,,20.9812866,105.8304628
460,Bố Nhím - Mì Trộn & Đồ Ăn Vặt - Vũ Tông Phan,"21A Ngõ 481 Vũ Tông Phan, P. Khương Đình, Thanh Xuân, Hà Nội",,,20.98689,105.8148407
461,ĐO ĐO - Bánh Tráng Trộn - Trung Văn,"5C2 Ngõ 289 Lương Thế Vinh, P. Trung Văn, Nam Từ Liêm, Hà Nội",,,20.9944071,105.7902263
462,Khánh Linh - Nước Ép & Ăn Vặt - Ao Sen,"2B Ngõ 4 Ao Sen, P. Mộ Lao, Hà Đông, Hà Nội",,,20.9819883,105.7882605
463,O Thi - Bánh Bèo Lọc Huế - Hà Nội,"5 NV2 Yên Xá, Tổng Cục 5, Thanh Trì, Hà Nội",,,20.9734567,105.7965052
464,Bếp Chay Vft FOOD - Món Chay Hàn Việt,"130 Nguyễn Đức Cảnh, Hoàng Mai, Hà Nội",,,20.986573,105.8520567
465,Toocha Tea - Vinhomes Ocean Park,"R1.02 The Zenpark Vinhomes Ocean Park, X. Đa Tốn, Gia Lâm, Hà Nội",,,21.0007383,105.9430967
466,Cha Go Tea & Caf'e - Aeonmall Hà Đông,"T214-2 Tầng 2, Trung tâm thương mại Aeonmall Hà Đông, Cụm dân cư Hoàng Văn Thụ, P. Dương Nội, Hà Đông, Hà Nội",,,20.9711523,105.779009
467,Trà Chanh Giã Tay GUANG DONG & Đồ Ăn Vặt - 33 Bùi Xương Trạch,"33 Bùi Xương Trạch, P. Khương Đình, Thanh Xuân, Hà Nội",,,20.9913233,105.817386
468,Gấu Trúc Béo - Mỳ Trộn Indomie - 347 Ngô Gia Tự,"347 Ngô Gia Tự, P. Đức Giang, Long Biên, Hà Nội",,,21.062525,105.8948092
469,Pizza & Mì Ý - ITALO Corner Phạm Văn Đồng,"398 Phạm Văn Đồng, P. Cổ Nhuế 2, Bắc Từ Liêm, Hà Nội",,,21.0569668,105.7822224
470,"Nước Ép, Sinh Tố Đồng Giá 21k - Yên Lãng","112 Yên Lãng, P. Thịnh Quang, Đống Đa, Hà Nội",,,21.0102634,105.8160375
471,Bastet's Home - Trà Sữa & Ăn Vặt - Hà Đông,"34 Trưng Nhị, Hà Đông, Hà Nội",,,20.9703644,105.7788606
472,AK Quán - Nước Ép Sinh Tố & Trà Trái Cây Tươi,"TT5.2B-26 KĐT Mới Đại Kim, Hoàng Mai, Hà Nội",,,20.9739692,105.8216911
473,Trà Bí Đao - 254 Lê Thanh Nghị,"254B Lê Thanh Nghị, P. Đồng Tâm, Hai Bà Trưng, Hà Nội",,,21.0017915,105.8437857
474,Ăn Uống Online - 29 Bế Văn Đàn,"29 Bế Văn Đàn, P. Quang Trung, Hà Đông, Hà Nội",,,20.9713918,105.7755675
475,"Mẹ Jo - Nước Ép, Sinh Tố & Bún Phở Trộn","259 Yên Hoà, P. Yên Hoà, Cầu Giấy, Hà Nội",,,21.0211383,105.7931441
476,"Lilla Lycka Coffee - Trà, Matcha & Cà Phê - Huỳnh Thúc Kháng","28 Ngõ 49 Huỳnh Thúc Kháng, P. Láng Hạ, Đống Đa, Hà Nội",,,21.0176915,105.8101438
477,Bún Chả Mẹ Nga - 32 Vân Hồ 3,"32 Vân Hồ 3, Hai Bà Trưng, Hà Nội",,,21.0101777,105.845843
478,Twitter Beans Coffee - Vũ Phạm Hàm,"5 Vũ Phạm Hàm, P. Yên Hòa, Cầu Giấy, Hà Nội",,,21.0172918,105.7979823
479,Mì Trộn & Cá Viên Chiên - Bếp Của Tỉn - Khu Tập Thể Vĩnh Phúc,"Chung Cư NewTaCo, Khu 7.2ha, P. Vĩnh Phúc, Ba Đình, Hà Nội",,,21.0425501,105.8075192
480,Bà Vân - Mì Trộn Indo Siêu Ngon - Linh Đường,"37 Linh Đường, Hoàng Mai, Hà Nội",,,20.9635143,105.8397432
481,3S Coffee & Tea - Matcha & Cà Phê Đậm Vị - Nghĩa Tân,"6C B19 Ngõ 1 Nghĩa Tân, P. Nghĩa Tân, Cầu Giấy, Hà Nội",,,21.0454086,105.7952199
482,"Mỳ Cay, Bánh Mỳ & Hoa Quả - Ngọc Thụy","Số 10 Ngõ 130 Ngọc Thụy, P. Ngọc Thụy, Long Biên, Hà Nội",,,21.0515047,105.8645171
483,Ăn Quà Vặt MICHU - Thanh Trì,"Khu Cánh Đồng, Đường Mới Tự Khoát - Đối Diện Công Tu Jotun, Thanh Trì, Hà Nội",,,20.9261078,105.855776
484,Tiệm Trà Trái Cây Tóc Tém - 100% Trái Cây Tươi & Không Syrup - 33 Đình Thôn,"33 Đình Thôn, P. Mỹ Đình 1, Nam Từ Liêm, Hà Nội",,,21.0210572,105.7803479
485,Bún Trộn Nam Bộ & Bún Đậu Mắm Tôm - 26B Ngõ 44 Nhân Hoà,"Số 26B Ngõ 44 Nhân Hoà, P. Nhân Chính, Thanh Xuân, Hà Nội",,,21.0024997,105.8091117
486,Bánh Cuốn Nóng & Gà Tần - 120A6 Trần Huy Liệu,"120A6 Trần Huy Liệu, P. Giảng Võ, Ba Đình, Hà Nội",,,21.0298958,105.819659
487,LiBER - Bubble Tea & Coffee - Dương Xá,"Số 39 Ngõ 3 Đường Dương Xá, Dương Đanh, X. Dương Đanh, Gia Lâm, Hà Nội",,,21.0063487,105.9700814
488,Bún Đậu Mẹt - Cô Ly,"84 Bế Văn Đàn, P. Quang Trung, Hà Đông, Hà Nội",,,20.9688804,105.7720558
489,Sushi Garden,"131 Chính Kinh, P. Nhân Chính, Thanh Xuân, Hà Nội",,,21.000597,105.810744
490,Tiệm Cơm 2 Béo - Cơm Văn Phòng,"202F Đội Cấn, P. Đội Cấn, Ba Đình, Hà Nội",,,21.0349624,105.8232704
491,"Tiệm Nước Ép, Trà & Cafe - Phố Dịch Vọng","Số 2 Phố Dịch Vọng, Cầu Giấy, Hà Nội",,,21.0344569,105.7941394
492,Passion Macaron - Bánh Macaron & Bánh Mochi Nhân Kem Lạnh - Mai Anh Tuấn,"24 Ngõ 174 Mai Anh Tuấn, Đống Đa, Hà Nội",,,21.0196061,105.819091
493,Bún Bò Anh Gold - Hồng Mai,"205 Hồng Mai, P. Quỳnh Lôi, Hai Bà Trưng, Hà Nội",,,20.9994371,105.8561509
494,Vịt Cay Laya - Núi Trúc,"65 Núi Trúc, P. Kim Mã, Ba Đình, Hà Nội",,,21.0303079,105.8227187
495,Trà Nhà King - Vũ Phạm Hàm,"35 Vũ Phạm Hàm, P. Yên Hòa, Cầu Giấy, Hà Nội",,,21.0196254,105.8001603
496,Bún Bò Huế Hà Tiên - Nguyễn Văn Cừ,"Số 37 Ngách 564 Nguyễn Văn Cừ, P. Gia Thụy, Long Biên, Hà Nội",,,21.0496384,105.8836749
497,Cô Quỳnh - Lẩu & Nướng - Vũ Tông Phan,"455 Vũ Tông Phan, P. Khương Đình, Thanh Xuân, Hà Nội",,,20.9874718,105.8137106
498,Nộm Bò Khô Long Vĩ Thành - Thái Hà,"52 Thái Hà, P. Trung Liệt, Đống Đa, Hà Nội",,,21.0106804,105.8225573
499,"CÔ TẤM - Mỳ Siu Cay, Chân Gà Sốt Thái & Đồ Ăn Nhanh - Quang Tiến","Số 2 Ngách 24 Ngõ 53 Quang Tiến, Nam Từ Liêm, Hà Nội",,,21.0028509,105.7585322
500,Bún Đậu Làng Mơ BB - Trần Quốc Vượng,"Số 4 Ngõ 105 Trần Quốc Vượng, P. Dịch Vọng Hậu, Cầu Giấy, Hà Nội",,,21.0342771,105.7840291
501,Liuni Tea Tran Dai Nghia - Trà Sữa & Đồ Ăn Nhẹ - Trần Đại Nghĩa,"169 Trần Đại Nghĩa, Hai Bà Trưng, Hà Nội",,,21.0008794,105.845486
502,Bánh Mì Sài Gòn Thanh Trúc - 127 Phú Diễn,"127 Phú Diễn, P. Phú Diễn, Bắc Từ Liêm, Hà Nội",,,21.0515228,105.7649182
503,Bếp Mẹ Hổ - Hoa Quả Dầm Muối Ớt & Ăn Vặt,"4B Hẻm 120/4/3 Ngõ 120 Hoàng Hoa Thám, P. Thụy Khuê, Tây Hồ, Hà Nội",,,21.0418534,105.8338901
504,Bánh Mỳ Doner Kebab - Bánh Mỳ Thuỷ Béo & Ăn Vặt - Hàng Cót,"10 Hàng Cót, P. Hàng Mã, Hoàn Kiếm, Hà Nội",,,21.0393287,105.8470151
505,"90's Tea And Drink - Trà, Cà Phê & Latte Nguyên Vị","Số 2 Ngõ 622 Minh Khai, P. Minh Khai, Hai Bà Trưng, Hà Nội",,,20.9989577,105.8709056
506,Mì Trộn Indomie Gấu Bé - Cự Lộc,"171 Cự Lộc, P. Thượng Đình, Thanh Xuân, Hà Nội",,,21.003613,105.8129309
507,"Hảo Hảo - Nước Mía, Dừa Xiêm & Trà Chanh - 65 Yên Xá","65 Yên Xá, Thanh Trì, Hà Nội",,,20.972734,105.796471
508,EVERGREEN - Matcha Nhật Thượng Hạng - GS1 Smart City,"Sảnh GS1 Vinhomes Smart City, Nam Từ Liêm, Hà Nội",,,21.005555,105.737214
509,"Nước Ép Khổng Lồ, Sinh Tố & Lạp Xưởng Nướng Đá - Tiệm Trà Nhật Minh","203 Lương Thế Vinh, P. Trung Văn, Nam Từ Liêm, Hà Nội",,,20.9944967,105.7903213
510,Cơm Trộn Hàn - Mỳ Trộn Kim Chi & Cơm Gà Siêu Ngon - Hồ Tùng Mậu,"9 Ngõ 39 Hồ Tùng Mậu, P. Mai Dịch, Cầu Giấy, Hà Nội",,,21.0359296,105.7772756
511,KEM BÔNG MÂY - Kem Ngon Ở Đây! - Phùng Khoang,"145 Phùng Khoang, P. Trung Văn, Nam Từ Liêm, Hà Nội",,,20.9891139,105.7928783
512,Trà Sữa Boza Tea - 82 Phùng Khoang,"82 Phùng Khoang, P. Trung Văn, Nam Từ Liêm, Hà Nội",,,20.9894113,105.793046
513,"Trà Hoa Quả, Trà Sữa & Cà Phê - KATO - Đức Thắng","43 Đức Thắng, P. Đức Thắng, Bắc Từ Liêm, Hà Nội",,,21.0809841,105.7780737
514,AIS Coffee - Cà Phê Muối & Matcha Latte,"25 Ngõ 143 Trung Kính, P. Trung Hoà, Cầu Giấy, Hà Nội",,,21.0147639,105.7943476
515,"Habifood - Bánh Bao Handmade, Sữa Hạt & Ăn Vặt - 101 C9 Hoàng Ngọc Phách","101C9 Hoàng Ngọc Phách, P. Láng Hạ, Đống Đa, Hà Nội",,,21.0150874,105.8132891
516,Trà Sữa ChaCuiBa - Nguyễn Văn Tuyết,"37 Nguyễn Văn Tuyết, P. Ngã Tư Sở, Đống Đa, Hà Nội",,,21.0072972,105.8223563
517,Chang Food - Mì Trộn Indomie & Đồ Ăn Vặt - Quan Hoa,"8 Ngõ 97 Quan Hoa, P. Quan Hoa, Cầu Giấy, Hà Nội",,,21.033486,105.8032684
518,"Viva Fruits - Nước Ép Detox, Trà Hoa Quả Tươi & Chè Ngon Quên Sầu","7 Ngách 30 Ngõ 165 Thái Hà, P. Láng Hạ, Đống Đa, Hà Nội",,,21.0144419,105.816332
519,Bếp Nhà Ku Tí - Cầu Diễn,"52 Ngõ 132 Cầu Diễn, P. Minh Khai, Bắc Từ Liêm, Hà Nội",,,21.0534084,105.737643
520,Chocoffee - Đào Tấn,"8 Ngõ 24 Đào Tấn, P. Cống Vị, Ba Đình, Hà Nội",,,21.0327854,105.808812
521,"Bếp Cô Nga - Bún Chả Phố Cổ, Bún Đậu Mẹt - Dương Quảng Hàm","39 Ngõ 167 Dương Quảng Hàm, Cầu Giấy, Hà Nội",,,21.0377221,105.8001183
522,Ngọc - Ăn Vặt - Ngõ Quỳnh,"232 Ngõ Quỳnh, P. Quỳnh Lôi, Hai Bà Trưng, Hà Nội",,,21.0003265,105.8564284
523,Cháo Sườn Sụn Phố Cổ,"101 A11 Nghĩa Tân, P. Nghĩa Tân, Cầu Giấy, Hà Nội",,,21.043375,105.79265
524,Thu Food - Bún - Thụy Khuê,"Ngõ 27 Thụy Khuê, Tây Hồ, Hà Nội",,,20.9894417,105.8421161
525,Thanh Hà - Tré Trộn Sài Gòn Tại Hà Nội - Đông Ngạc,"Chung Cư Ecohome 3 Toà N5, Bắc Từ Liêm, Hà Nội",,,21.0852824,105.783631
526,Cổ Trà - Trà Shan Tuyết 300 Năm Tuổi & Trà Hoa Quả - 94 Trấn Vũ,"94 Trấn Vũ, P. Quán Thánh, Ba Đình, Hà Nội",,,21.0432902,105.8398892
527,Nộm Bò Khô Long Vĩ Thành - Đặng Văn Ngữ,"104D2 Đặng Văn Ngữ, P. Trung Tự, Đống Đa, Hà Nội",,,21.00948,105.831475
528,Mr.Thịnh Gà Rán - Khoai Lang Lắc & Ăn Vặt - Nguyễn Đình Hoàn,"142D Nguyễn Đình Hoàn, P. Nghĩa Đô, Cầu Giấy, Hà Nội",,,21.0412077,105.8049141
529,"Kim Food - Mì Trộn Indomie, Trộn Hải Sản & Rau Củ Tươi Sống - Thái Hà","71 Ngõ 117 Thái Hà, P. Trung Liệt, Đống Đa, Hà Nội",,,21.0114665,105.8192443
530,"Thủy - Phở Gà Ta, Bún Thang & Nước Ép Trái Cây Tươi","261 Yên Hoà, Cầu Giấy, Hà Nội",,,21.0218044,105.790872
531,"BepFood - Gà Rán, Gà Luộc & Gà Ủ Muối Hoa Tiêu - Định Công Thượng","40 Ngõ 230 Phố Định Công Thượng, P. Định Công, Hoàng Mai, Hà Nội",,,20.9833904,105.8232338
532,Gà Nướng Muối Ớt & Gà Sốt Hàn - Thái Hà,"Số 19G Ngõ 98 Thái Hà, P. Trung Liệt, Đống Đa, Hà Nội",,,21.0119269,105.8225065
533,"Tóp Tép Quán - Nem Chua Rán, Xúc Xích & Gà Chiên - Hồ Tùng Mậu","Số 12 Ngách 41 Ngõ 199 Hồ Tùng Mậu, P. Cầu Diễn , Nam Từ Liêm, Hà Nội",,,21.0387497,105.7631455
534,Phương - Nước Ép & Sinh Tố - Sài Đồng,"Số 54 Ngõ 100 Sài Đồng, P. Sài Đồng, Long Biên, Hà Nội",,,21.0349103,105.9133133
535,"Bếp Mèo Ú - Đồ Hàn, Đồ Chiên & Đồ Ăn Nhanh - Lĩnh Nam","Số 12 Ngõ 32 Nam Dư, Hoàng Mai, Hà Nội",,,20.9790179,105.8837741
536,Mỳ Trộn Yến Xù - Ăn Vặt Siêu Ngon,"Số 6 Ngách 38 Ngõ 77 Phố 8/3, P. Minh Khai, Hai Bà Trưng, Hà Nội",,,20.9977765,105.8600033
537,"Bếp Nhà Nhom Nhem - Sandwich, Bánh Mì & Đồ Ăn Vặt - Hoàng Hoa Thám","177A Hoàng Hoa Thám, P. Ngọc Hà, Ba Đình, Hà Nội",,,21.0412697,105.8230466
538,True Tea 08 - Bát Khối,"Nhà 71, TT1, Ngõ 537 Bát Khối, P. Thạch Bàn, Long Biên, Hà Nội",,,21.0193583,105.9057898
539,Cơm Tấm Cô Trân - Cơm Sườn Nướng - 567 Nguyễn Văn Cừ,"567 Nguyễn Văn Cừ, Long Biên, Hà Nội",,,21.0520861,105.8854222
540,"Matcha Cofe - Nước Trái Cây, Sữa Chua Mix Vị & Sinh Tố Hoa Quả","LK 15 Lô 8 Ngõ 67 Phùng Khoang, P. Trung Văn, Nam Từ Liêm, Hà Nội",,,20.9866181,105.7903838
541,"Tiệm Ăn Vặt Hot Trend - Trà, Bánh Tráng & Các Loại Đồ Ăn Vặt - Đường Xuân La","78B/1 Ngõ 28 Xuân La, Tây Hồ, Hà Nội",,,21.0669704,105.8079895
542,Gánh Bún Đậu - Nem Nướng Nha Trang - Khương Trung,"59 Khương Trung, Thanh Xuân, Hà Nội",,,21.0000574,105.8184959
543,Mì Chua Cay - Mì Gà Tần Gia Truyền Phố Cổ,"8/41/401 Cổ Nhuế, P. Cổ Nhuế 2, Bắc Từ Liêm, Hà Nội",,,21.0671552,105.7773982
544,1992 Coffee & Tea - Ngõ Quỳnh,"Số 19 Ngách 317/13 Ngõ Quỳnh, P. Quỳnh Lôi, Hai Bà Trưng, Hà Nội",,,20.998361,105.857998
545,"Linh Đan - Bún Đậu, Xiên Que & Mì Trộn Indomie - Dương Nội","118 Đường Chùa Võ, Hà Đông, Hà Nội",,,20.9839491,105.7455469
546,Bún Bò Trộn 247 - Bún Trộn Nam Bộ - AEON Mall Hà Đông,"LK16/17/17 Hoàng Văn Thụ, P. Dương Nội, Hà Đông, Hà Nội",,,20.9706591,105.7781938
547,Thế Giới - Gà - Văn Quán,"A32 - TT18, Nguyễn Khuyến, Văn Quán, P. Phúc La, Hà Đông, Hà Nội",,,20.9734084,105.7901413
548,Bún Ốc Sườn Cô Sáu - Lạc Trung,"176 Lạc Trung, P. Thanh Lương, Hai Bà Trưng, Hà Nội",,,21.0031288,105.8650991
549,"Poco - Pizza, Bánh Mì Chảo & Bít Tết - Đội Cấn","414 Đội Cấn, P. Vĩnh Phúc, Ba Đình, Hà Nội",,,21.0379097,105.81083
550,Lẩu Bò Hai Hai - Phúc Diễn,"18 Phúc Diễn, P. Cầu Diễn, Nam Từ Liêm, Hà Nội",,,21.0363517,105.7579869
551,Hương Trà - Tiệm Trà Trái Cây Tươi 100% - Nguyễn Thị Định,"21 Ngõ 1 Nguyễn Thị Định, P. Trung Hoà, Cầu Giấy, Hà Nội",,,21.0136044,105.8039492
552,Tropical Pizza,"39 Ngõ 466 Ngô Gia Tự, P. Đức Giang, Long Biên, Hà Nội",,,21.0712134,105.9048186
553,Tonkotsu Ramen - Mì Tươi Truyền Thống Nhật Bản,"175 Trần Quốc Vượng, Cầu Giấy, Hà Nội",,,21.0342395,105.7822738
554,Bún Đậu Bảo Ngân - 88 Đê La Thành,"Đối Diện Số 88 Đê La Thành Nhỏ, P. Phương Liên, Đống Đa, Hà Nội",,,21.0148574,105.8353794
555,Mukbang - Đồ Ăn Hàn Quốc - Trần Đại Nghĩa,"239 Trần Đại Nghĩa, P. Đồng Tâm, Hai Bà Trưng, Hà Nội",,,20.9974694,105.8460601
556,"Meow Food - Chân Gà Sốt Thái, Trà Sữa & Đồ Ăn Vặt","T46 Ngõ 521 Cổ Nhuế, P. Cổ Nhuế 2, Bắc Từ Liêm, Hà Nội",,,21.066895,105.7755097
557,"Maison Coffee - Matcha Latte, Ô Long Nhài Sữa & Trà Hoa Quả Nhiệt Đới","9 Ngõ 20 Mỹ Đình, P. Mỹ Đình 2, Nam Từ Liêm, Hà Nội",,,21.0309829,105.773562
558,"Quán Ăn Mẹ Dứa - Bún Đậu, Nem Nướng Nha Trang - Nguyễn Trãi","Số 25 Ngõ 475/41 Nguyễn Trãi, Thanh Xuân, Hà Nội",,,20.9900031,105.8029164
559,Anh Food - Đồ Ăn Vặt - Shop Online,"18 Ngõ 3 Nhân Hòa, P. Nhân Chính, Thanh Xuân, Hà Nội",,,21.0015248,105.8086983
560,Quỳnh Anh - Bún Bò Trộn Nam Bộ - Nhân Hòa,"16 Ngõ 3 Nhân Hòa, P. Nhân Chính, Thanh Xuân, Hà Nội",,,21.0014986,105.8086539
561,Hường - Bánh Xèo & Nem Lụi,"Ngõ 296 Minh Khai, Ngách 86, Số Nhà 42, P. Mai Động, Hoàng Mai, Hà Nội",,,20.9945662,105.8606367
562,Quán Cô Xuân - Kem Bơ- Chè Sầu & Đồ Ăn Vặt - Định Công Hạ,"Số 2B Ngõ 108 Định Công Hạ, P. Định Công, Hoàng Mai, Hà Nội",,,20.9799587,105.8276917
563,Oola - Trà Ô Long Đậm Vị - Tạ Quang Bửu,"108 Ng. 48 P. Tạ Quang Bửu, P. Bách Khoa, Hai Bà Trưng, Hà Nội",,,21.0007963,105.8489284
564,"Quán Chú HJIN - Cafe, Trà Chanh & Đồ Ăn Vặt","Số 30 Cầu Diễn, P. Phúc Diễn, Bắc Từ Liêm, Hà Nội",,,21.043134,105.7568695
565,Xôi Yến - Bách Khoa,"106 K2 Ngõ 48 Tạ Quang Bửu, P. Bách Khoa, Hai Bà Trưng, Hà Nội",,,21.0008668,105.8487704
566,Savanee - Tea N Coffee - Đền Lừ,"74 Hồ Đền Lừ, P. Tân Mai, Hoàng Mai, Hà Nội",,,20.9836299,105.8550986
567,Lẩu Ngon Tại Nhà Eat House,"Số 19 Ngõ 20 Nguyễn Chánh, P. Trung Ho, Cầu Giấy, Hà Nội",,,21.0093365,105.7957961
568,Bánh Mì Tròn Kẹp Gà Chiên Bagel - Harper Street,"254 Thụy Khuê, P. Thụy Khuê, Tây Hồ, Hà Nội",,,21.043471,105.818495
569,Quán Lẩu Ếch & Gà Mẹt - Khương Trung,"41 - 211 Khương Trung, P. Khương Trung, Thanh Xuân, Hà Nội",,,20.9955423,105.8182501
570,"Bếp Mợ Ba - Xôi, Đồ Ăn & Đồ Uống - Kim Văn Kim Lũ","CT11 Kim Văn Kim Lũ, P. Đại Kim, Hoàng Mai, Hà Nội",,,20.9736649,105.819739
571,"Gà Rán, Gà Luôc & Gà Ủ Muối - Kiến Hưng","40 Tổ 8 Đa Sĩ, P. Kiến Hưng, Hà Đông, Hà Nội",,,20.9601346,105.787578
572,"Quán Gà Rán, Cơm Gà & Mỳ Trộn - Phú Diễn","Số 42 Ngõ 172 Đường Phú Diễn, Bắc Từ Liêm, Hà Nội",,,21.0461774,105.7644567
573,Ăn Cùng Bé Bơ - KĐT Văn Quán,"C12 TT5 KĐT Văn Quán, P. Văn Quán, Hà Đông, Hà Nội",,,20.9717611,105.7878673
574,Cháo Dinh Dưỡng Việt Hoàng - Chợ Triều Khúc,"Chợ Triều Khúc (Đối Diện Công An Triều Khúc), X. Tân Triều, Thanh Trì, Hà Nội",,,20.9821938,105.8003744
575,"Tiệm Nhà Gạo - Trà Hoa Quả, Nước Ép & Trà Sữa - 202 Võ Chí Công","Số 2 Dãy N15 Khu Tập Thể Bộ Tư Lệnh Cảnh Vệ, Ngõ 202 Võ Chí Công, Tây Hồ, Hà Nội",,,21.0571697,105.805077
576,Nem Nướng Nha Trang & Đồ Ăn Vặt - Nơm Trạm Trôi,"26 Bồ Đàm, Đường 422, Khu 6, Thị Trấn Trạm Trôi, X. Trạm Trôi, Hoài Đức, Hà Nội",,,21.0688133,105.7096112
577,Trang Ly Food - Kimbap Ngon & Cà Phê Online,"44 Ngõ 277 Tôn Đức Thắng, Đống Đa, Hà Nội",,,21.0201492,105.8311877
578,Bami Doner - Bánh Mì Doner Cuộn & Mỳ Ý,"1 - C4 Ngõ 261 Trần Quốc Hoàn, P. Dịch Vọng Hậu, Cầu Giấy, Hà Nội",,,21.0413178,105.7817362
579,Tâm An - Nem Nướng Nha Trang - Trần Duy Hưng,"Số 2 ngách 41/3 Trần Duy Hưng, P. Trung Hoà, Cầu Giấy, Hà Nội",,,21.012823,105.8012907
580,Rainbow Foods - Eat Clean & Detox - 132 Âu Cơ,"12B Ngõ 132 Âu Cơ, P. Tứ Liên, Tây Hồ, Hà Nội",,,21.0637692,105.8326364
581,Mai Anh - Bún Đậu - KĐT Phú Lương,"LK15 - 11 KĐT Phú Lương, Hà Đông, Hà Nội",,,20.952141,105.764421
582,Thịt Xiên Nướng Tú Mỡ - Nướng Than - 129 Vương Thừa Vũ,"129 Vương Thừa Vũ, Thanh Xuân, Hà Nội",,,20.9972769,105.821909
583,Fam's Chicken - Ocean Park,"Shop 01S8A, Tòa S1.10, Vinhomes Ocean Park, X. Đa Tốn, Gia Lâm, Hà Nội",,,20.9955329,105.944303
584,"Thuỷ Kin - Nước Ép, Sinh Tố & Bánh Canh Ghẹ - Cổ Linh","9 Ngõ 144 Cổ Linh, P.Long Biên, Long Biên, Hà Nội",,,21.0266767,105.8933327
585,Laman Juice - Nước Ép Vì Sức Khoẻ - Triều Khúc,"66 Ngõ 66A Triều Khúc, X. Tân Triều, Thanh Trì, Hà Nội",,,20.9828358,105.798416
586,LANACO FOOD - Bánh Ngọt & Trà Sữa - Quang Trung,"208 Quang Trung, P. Hà Cầu, Hà Đông, Hà Nội",,,20.9662383,105.7695683
587,"The Cup Of QQ - Trà Sữa, Matcha & Cafe - Láng Hạ","Số 1 Ngõ 5 Láng Hạ, P. Thành Công, Ba Đình, Hà Nội",,,21.022121,105.81918
588,Chân Gà Sả Tắc & Đồ Ăn Vặt - Lee Chun Cook,"Số 20 Ngách 82 Ngõ 459 Bạch Mai, Hai Bà Trưng, Hà Nội",,,20.9975304,105.8506475
589,Monki Quán - Nước Trà Hoa Quả & Ăn Vặt - Mộ Lao,"Số Nhà 16 Ngách 1/2 Đường 36m , Khu Giãn Dân Mộ Lao, P. Mộ Lao, Hà Đông, Hà Nội",,,20.9806001,105.7829521
590,Bông Cafe - 99 Ngô Gia Tự,"99 Đường Ngô Gia Tự, Thượng Thanh, P. Đức Giang, Long Biên, Hà Nội",,,21.0616608,105.8852589
591,Pô's Cake - Bông Lan Trứng Muối & Khô Gà Online - Bằng B,"115A Ngõ 2 Phố Bằng B, P. Hoàng Liệt, Hoàng Mai, Hà Nội",,,20.9547352,105.8293291
592,Pizza & Đồ Ăn Vặt Việt Trung Hàn - Nguyễn Văn Cừ,"35A Ngõ 564 Nguyễn Văn Cừ, P. Gia Thụy, Long Biên, Hà Nội",,,21.0496871,105.8863534
593,Bi Bán Mì - Mì Trộn Indomie - Ngõ 100 Nguyễn Xiển,"50 Ngõ 100 Nguyễn Xiển, Thanh Xuân, Hà Nội",,,20.9886556,105.8034775
594,"GỎI CUỐN FAMILY - Bún Trộn, Mỳ Trộn & Nem Nướng Nha Trang - 256 Bạch Đằng","256/16/27 Bạch Đằng, P. Chương Dương Độ, Hoàn Kiếm, Hà Nội",,,21.0264879,105.8610102
595,Nabi Food - Tiệm Mì Indomie & Đồ Ăn Vặt - Lĩnh Nam,"Số 18 Ngõ 112/54 Phố Nam Dư, P. Lĩnh Nam, Hoàng Mai, Hà Nội",,,20.984888,105.8886811
596,Somali Cat - Bánh Ngọt & Trà Sữa Online - Nguyễn Huy Tưởng,"142 Nguyễn Huy Tưởng, P. Thanh Xuân Trung, Thanh Xuân, Hà Nội",,,20.9978528,105.8048293
597,Khánh Chi Bán Bánh,"22 Thượng Đình, Thanh Xuân, Hà Nội",,,21.005002,105.8190705
598,Liuni Tea - Nguyễn Trãi,"328D Nguyễn Trãi, P. Thanh Xuân Trung, Thanh Xuân, Hà Nội",,,20.9963157,105.8098802
599,Mói Mói - Tiệm Trà Nhật Bản - Vương Thừa Vũ,"Số 1 Ngõ 131/8 Vương Thừa Vũ, Thanh Xuân, Hà Nội",,,20.9969759,105.821489
600,"Nut.matcha - Coffe, Matcha & Trà - Mễ Trì Hạ","33 Ting Tong, Ngách 59/93/25 Mễ Trì Hạ, P. Mễ Trì, Nam Từ Liêm, Hà Nội",,,21.012439,105.780031
601,Lee Trà Hoa Quả Và Nước Ép - 89 Phố Chùa Quỳnh,"89 Phố Chùa Quỳnh, Hai Bà Trưng, Hà Nội",,,21.001415,105.8583374
602,Dr.Matcha Tiệm Trà Nhật Bản - Giải Phóng,"Số 27B Ngõ 697 Giải Phóng, Hoàng Mai, Hà Nội",,,20.9877326,105.8420035
603,GÀ RÁN & BURGER GONGFU CHICKEN - Trần Khát Chân,"253 Trần Khát Chân, P. Đống Mác, Hai Bà Trưng, Hà Nội",,,21.0088319,105.8603656
604,Nước Ép Trái Cây Khổng Lồ 1991,"Kiot 16, Ngõ 124 Vĩnh Tuy, P. Vĩnh Tuy, Hai Bà Trưng, Hà Nội",,,21.0009556,105.8756485
605,Bánh Mỳ Nướng & Nước Ép - 44 Nguyễn Văn Trỗi,"44 Nguyễn Văn Trỗi, P. Phương Liệt, Thanh Xuân, Hà Nội",,,20.9803236,105.7865136
606,"Ngô Khoai Sắn Cô Út - Khoai Lang Nướng, Bánh Mỳ & Sinh Tố","112 Ngõ 259 Phố Vọng, P. Đồng Tâm, Hai Bà Trưng, Hà Nội",,,20.9940497,105.8435481
607,Bami Sot - Bánh Mì Đen - Lò Đúc,"138 Lò Đúc, Hai Bà Trưng, Hà Nội",,,21.0126608,105.8583014
608,Bếp Ăn Vặt - Đồ Hàn & Mỳ Indomie - Bạch Đằng,"101D Bạch Đằng, P. Chương Dương Độ, Hoàn Kiếm, Hà Nội",,,21.0305274,105.8596073
609,Tiệm Oye - Cafe & Trà Ngon Đậm Vị - Lê Trọng Tấn,"Số Nhà B3 Ngõ 32 Lê Trọng Tấn, P. La Khê, Hà Đông, Hà Nội",,,20.9642558,105.7633199
610,Mỳ Chua Cay & Đồ Ăn Vặt Online - Long Biên,"28 Ngõ 38 Phố Tư Đình, Long Biên, Hà Nội",,,21.0283053,105.8848759
611,"Bul - Bún Chả, Bánh Mì Lạng Sơn - Khu Tập Thể Nghĩa Tân","112A9 Nghĩa Tân, Cầu Giấy, Hà Nội",,,21.043558,105.793488
612,Phở KCC - Cơm Gà Xối Mắm Còn - KĐT Vân Canh,"CT1 Number One, Số Nhà 40 LK23 KĐT Vân Canh, Xã Vân Canh, Hoài Đức, Hà Nội",,,21.0385476,105.7323092
613,Tiệm Mỳ Cô Hảo - Ăn Là Nghiền,"Số Nhà 117 Ngõ 324 Phương Canh, P. Phương Canh, Nam Từ Liêm, Hà Nội",,,21.0364545,105.7427179
614,Koki - Mỳ Cay Seoul & Mỳ Trộn Indomie - Trần Cung,"Số 4 Ngõ 297/61 Trần Cung, P. Cổ Nhuế 1, Bắc Từ Liêm, Hà Nội",,,21.0567663,105.7843168
615,"Cót Fruits - Hoa Quả, Nước Ép & Sinh Tố - Yên Hoà","29 Đường Yên Hoà , Cầu Giấy, Hà Nội",,,21.0242299,105.7969368
616,Tiệm Bánh Sinh Nhật - Bánh Crepe Sầu Riêng - 209 Định Công Thượng,"209 Định Công Thượng, P. Định Công, Hoàng Mai, Hà Nội",,,20.9845096,105.8222226
617,Beany Tea & Coffee,"144 Tây Trà, Hoàng Mai, Hà Nội",,,20.9751683,105.8827109
618,"Hilo Coffee - Trà Hoa Quả, Cà Phê & Nước Ép - Trần Quý Kiên","44 Trần Quý Kiên, P. Dịch Vọng, Cầu Giấy, Hà Nội",,,21.0386036,105.7920126
619,Mori Matcha - Matcha Latte - Trung Kính,"Số 09 Ngõ 213 Trung Kính, P. Yên Hòa, Cầu Giấy, Hà Nội",,,21.0175079,105.7918923
620,Soocha Tea - Trà Sữa - Cổ Nhuế,"NO4TT3 521 Cổ Nhuế, Bắc Từ Liêm, Hà Nội",,,21.0672922,105.7767049
621,HALI Matcha Latte - Trà Sữa & Nước Ép Nguyên Chất,"276 Tây Sơn, Đống Đa, Hà Nội",,,21.007157,105.823271
622,SauSuFood - An Trạch,"97 An Trạch, P. Quốc Tử Giám, Đống Đa, Hà Nội",,,21.0276415,105.8296942
623,Huế Nem Bùi - Nem Chua - Thịt Chua & Đồ Ăn Vặt - Mỹ Đình,"Số Nhà 25 Ngõ 322 Mỹ Đình, P. Mỹ Đình 1, Nam Từ Liêm, Hà Nội",,,21.0228739,105.7730794
624,Bánh Mì Sài Gòn Đức Đại - 28 Phúc Xá,"28 Phúc Xá, P. Phúc Xá, Ba Đình, Hà Nội",,,21.0443347,105.8499789
625,Mỏ Khoét Food - Cơm Trộn & Đồ Ăn Vặt,"Số 12 Ngõ 280 Lê Trọng Tấn, Thanh Xuân, Hà Nội",,,20.9939419,105.8314746
626,Nước Ép Sinh Tố A Béo - Trần Phú,"80 Trần Phú, P. Mộ Lao, Hà Đông, Hà Nội",,,20.9760062,105.7859859
627,"Chân Gà Sả Ớt, Bún Đậu & Phở Cuốn - Lê Đức Thọ","Nhà Số 1 Ngõ 35/27, Đường Lê Đức Thọ, P. Mỹ Đình 2, Nam Từ Liêm, Hà Nội",,,21.0316012,105.7697365
628,"Bánh Tráng Min - Nướng, Cuộn & Trộn - 47 Trâu Quỳ","47 Trâu Quỳ, Gia Lâm, Hà Nội",,,21.0078386,105.9376756
629,"Bếp Ngoại Thanh - Nem Nắm Giao Thuỷ, Nộm Sứa & Chạo Tai Heo - Hoàng Ngân","4 Ngõ 170 Hoàng Ngân, P. Trung Hoà, Cầu Giấy, Hà Nội",,,21.0104215,105.8059136
630,"Trà Trái Cây Tươi, Nước Ép Nam Béo","Số 3C Ngõ 197 Phố Định Công, Hoàng Mai, Hà Nội",,,20.9822639,105.8341326
631,Bún Trộn & Cơm Văn Phòng - Bếp Nhà Gạo,"16 Ngõ 161 Bát Khối, P. Long Biên, Long Biên, Hà Nội",,,21.0241087,105.8867945
632,"Memoir Coffee - Cà Phê, Matcha & Trà - Chùa Láng","Số 16 Ngách 10 Ngõ 121 Chùa Láng, Đống Đa, Hà Nội",,,21.0226106,105.803938
633,Lẩu Mười CS2 - Lẩu Thái 1 Người Tomyum & Bún Hải Sản - Quan Nhân,"69 Ngõ 109 Quan Nhân, P. Nhân Chính, Thanh Xuân, Hà Nội",,,21.0056773,105.81339
634,"Cháo, Mỳ Trộn & Đồ Ăn Vặt A Béo - 358 Bùi Xương Trạch","Số Nhà 98 Ngõ 358/40/30 Bùi Xương Trạch, P. Khương Đình, Thanh Xuân, Hà Nội",,,20.9900699,105.8176767
635,Nem Nướng Nha Trang & Nem Lụi Huế - Vân Béo,"Số 6A Ngõ 38 Khúc Thừa Dụ, P. Dịch Vọng Hậu, Cầu Giấy, Hà Nội",,,21.0341207,105.7914413
636,"Phở Gà, Cơm Sườn & Thịt Xiên - 64/8 Bùi Ngọc Dương","Số 64 Ngõ 8 Bùi Ngọc Dương, P. Bạch Mai, Hai Bà Trưng, Hà Nội",,,21.0009223,105.8530453
637,JingCha - Milk Tea & Coffee - Nguyễn Văn Cừ,"72 Nguyễn Văn Cừ, Long Biên, Hà Nội",,,21.0438546,105.8752394
638,Tùng Huế 3 - Bùn Bò Huế - La Dương,"745 Chùa Tổng, P. Dương Nội, Hà Đông, Hà Nội",,,20.9913132,105.7291574
639,Bún Đậu Anh Phố Cổ - 531 Minh Khai,"531 Minh Khai, P. Minh Khai, Hai Bà Trưng, Hà Nội",,,20.9954365,105.8554221
640,Nước Ép - Sinh Tố Nhà Na,"209 Doãn Kế Thiện, P. Mai Dịch, Cầu Giấy, Hà Nội",,,21.0417591,105.7760363
641,"Trà Trái Cây, Nước Ép & Sinh Tố - Chè Ngon","64 Nguyên Hồng, P. Láng Hạ, Đống Đa, Hà Nội",,,21.0153102,105.8087575
642,Tteok & Kim - Đồ Ăn Hàn Quốc,"38 Ngõ 392 Bạch Mai, P. Bạch Mai, Hai Bà Trưng, Hà Nội",,,20.9997374,105.8498725
643,Grape - Nước Nho Tươi 100% - Trương Định,"385 Trương Định, P. Tân Mai, Hoàng Mai, Hà Nội",,,20.986456,105.846771
644,Ăn Vặt A Mỡ - 157 Chùa Láng,"157B Phố Chùa Láng, P. Láng Thượng, Đống Đa, Hà Nội",,,21.0209598,105.8059389
645,Cafe Cốt Dừa & Trà Cúc - Cô Ba Tiểu Linh,"38 Yên Lãng, P. Láng Hạ, Đống Đa, Hà Nội",,,21.0132454,105.8171095
646,Ô Long Đây - 62 Ngọc Khánh,"62 Ngọc Khánh, P.Ngọc Khánh, Ba Đình, Hà Nội",,,21.0243916,105.8183626
647,YUMMY CHICKEN - Gà Rán Truyền Thống Hàn Quốc & Đồ Ăn Vặt - Vũ Tông Phan,"Số Nhà 216 Ngõ 545 Vũ Tông Phan, P. Khương Đình, Thanh Xuân, Hà Nội",,,20.9850685,105.8151582
648,Bún Cá Ngon - Quan Nhân,"20 Ngõ 109/20 Phố Quan Nhân, P. Nhân Chính, Thanh Xuân, Hà Nội",,,21.0053864,105.8127819
649,Strawberry - Nước Dâu Tươi 100% & Trà Hoa Quả - Nguyễn Lương Bằng,"106 Nguyễn Lương Bằng, P. Ô Chợ Dừa, Đống Đa, Hà Nội",,,21.0167818,105.8287626
650,Chè Ngon Sài Gòn - Chè Thái Thập Cẩm - Nguyễn Chánh,"Chung Cư A14A, P. Yên Hòa, Cầu Giấy, Hà Nội",,,21.0232671,105.7946587
651,"HUY FOOD - Cháo, Súp Gà & Mỳ Xào - Trung Kính","2B Ngõ 123 Trung Kính, P. Trung Hoà, Cầu Giấy, Hà Nội",,,21.0137692,105.7961247
652,"Tiệm Trà 1997 - Nước Ép, Trà Hoa Quả Tươi & Mỳ Trộn","252 Trương Định, P. Tương Mai, Hoàng Mai, Hà Nội",,,20.9897428,105.8472246
653,Seoul - Gà Rán Hàn Quốc - Linh Đàm,"Kiot 02 - HH1B Linh Đàm, P. Hoàng Liệt, Hoàng Mai, Hà Nội",,,20.9645382,105.8261402
654,Ăn Vặt Hàn Quốc - Gà Rán - Linh Đàm,"Kiot 44, HH1C Linh Đàm, P. Hoàng Liệt, Hoàng Mai, Hà Nội",,,20.9647907,105.8266783
655,"Ong Mật Quán - Xiên Que, Bánh Mì & Trà Thái - 79 Triều Khúc","79 Triều Khúc, Thanh Xuân, Hà Nội",,,20.9840313,105.8002992
656,Thủy Anh Fruits - Hoa Quả Nhập Khẩu - Thành Công,"4 Thành Công, Ba Đình, Hà Nội",,,21.0199474,105.8164816
657,"An An Quán (Món Sài Gòn) - Cơm Sườn, Hủ Tíu & Bún Thịt Nướng - Nguyễn Khang","Số 12 Ngách 39 Ngõ 381 Nguyễn Khang, P. Yên Hòa, Cầu Giấy, Hà Nội",,,21.0269996,105.7977968
658,Bếp Chang - Mỳ Trộn Indomie & Ăn Vặt,"Số 33 Ngõ 52/25 Mỹ Đình, P. Mỹ Đình 2, Nam Từ Liêm, Hà Nội",,,21.0293022,105.7738189
659,"TI.ÂY - Matcha, Tea & Coffee","9 Ngõ 426/48/52 Đường Láng, P. Láng Hạ, Đống Đa, Hà Nội",,,21.010571,105.8126606
660,Mixed Noodles - Mỳ Trộn - Cầu Diễn,"Số 25 Ngõ 51/6 Ngoạ Long Minh Khai, Bắc Từ Liêm, Hà Nội",,,21.0506801,105.7445476
661,SimSu Food - Ăn Vặt & Mì Trộn Indomie - Định Công,"Số 89 Ngõ 99/110/79 Định Công Hạ, Hoàng Mai, Hà Nội",,,20.9777908,105.8257008
662,Quán Ăn 24h - Hàu Nướng & Cháo Hàu - Nhân Mỹ,"41 Ngách 322/95 Mỹ Đình, Nam Từ Liêm, Hà Nội",,,21.0208641,105.7718744
663,Trà Sữa Thé Oolong - Văn Điển,"Số 36 Ngõ 136 Tứ Hiệp ( Xóm Bến ), Thanh Trì, Hà Nội",,,20.9464388,105.8471625
664,Bếp Nhà SuKem - Tòa S4 Goldmark City,"Toà S4 Chung Cư Goldmark - 136 Hồ Tùng Mậu, P. Phú Diễn, Bắc Từ Liêm, Hà Nội",,,21.0419276,105.7668776
665,Tuyết Mai Quán - Ăn Vặt & Đồ Uống - Ngõ Trạm Điện,"Số Nhà 80/6 Ngách 44 Ngõ Trạm Điện, Tổ 8, P. La Khê, Hà Đông, Hà Nội",,,20.9536319,105.7585042
666,Ngon - Food - Kim Giang,"Nhà 38A Ngõ 168/97 Kim Giang, Hoàng Mai, Hà Nội",,,20.9775774,105.8163995
667,Mì Trộn Indomie & Đồ Ăn Vặt - Babyboss - Kim Giang,"392/2A Kim Giang, Hoàng Mai, Hà Nội",,,20.9747533,105.8245678
668,Thảo Nguyên Coffee & Tea - Tứ Hiệp,"Số 3 TT6 Khu Đấu Giá Tứ Hiệp, X. Tứ Hiệp, Thanh Trì, Hà Nội",,,20.9351958,105.8487883
669,"Tiệm Nhà Vi - Trà Sữa, Nước Trái Cây & Cafe - Nguyễn Huy Tưởng","148 Nguyễn Huy Tưởng, P. Thanh Xuân Trung, Thanh Xuân, Hà Nội",,,20.9977591,105.8047806
670,Đỉnh Đỉnh - Cơm Trung & Món Táu - Flychef - Nguyễn Huy Tưởng,"50 Nguyễn Huy Tưởng, P. Thanh Xuân, P. Thanh Xuân Trung, Thanh Xuân, Hà Nội",,,20.9998612,105.8075786
671,Fuku Fuku - Pasta Nhật và Fusion Food - Flychef - Nguyễn Huy Tưởng,"50 Nguyễn Huy Tưởng, P. Thanh Xuân, P. Thanh Xuân Trung, Thanh Xuân, Hà Nội",,,20.9998612,105.8075786
672,Tiệm Nước Ép HI Juice - Nước Ép & Trà Hoa Quả - Khương Đình,"91 Khương Đình, P. Hạ Đình, Thanh Xuân, Hà Nội",,,20.995958,105.813956
673,Cơm Gà Anh Béo - Gà Rán & Mì Trộn - Láng Hạ,"Số 45 Ngõ 87 Láng Hạ, Ba Đình, Hà Nội",,,21.0171058,105.8165027
674,Quán Hùng Trang - Nước Ép & Sinh Tố - Văn Chương,"247 Văn Chương, Đống Đa, Hà Nội",,,21.022491,105.8371026
675,"Ichi Food - Cháo, Súp & Mỳ Xào - Kim Giang","41A Ng. 192 Đ. Kim Giang, P. Đại Kim, Hoàng Mai, Hà Nội",,,20.9787662,105.8169912
676,Bánh Mỳ & Bún Riêu - Chay Thiện Tâm,"133 Mai Hắc Đế, P. Lê Đại Hành, Hai Bà Trưng, Hà Nội",,,21.0115991,105.8510986
677,Lethimcook - Mỳ Trộn Indomie - Tô Hiến Thành,"30 Tô Hiến Thành, Hà Đông, Hà Nội",,,20.9714838,105.784137
678,Omu Ome - Cơm trứng phủ - Flychef - Nguyễn Huy Tưởng,"50 Nguyễn Huy Tưởng, P. Thanh Xuân, P. Thanh Xuân Trung, Thanh Xuân, Hà Nội",,,20.9998612,105.8075786
679,BÚN RIÊU VIỆT - ĐÔNG CÁC,"193-195 Đông Các, P. Ô Chợ Dừa, Đống Đa, Hà Nội",,,21.0060054,105.8314798
680,Cháo Dinh Dưỡng Cao Cấp Xuka - Royal City,"1 Phố Cự Lộc, P. Nhân Chính (Gần Royal City), Thanh Xuân, Hà Nội",,,20.9994622,105.8146165
681,"Lachi - Tea, Coffee & Trà Sữa Hương Nhài - Dương Nội","No12, 480 Khu Đất Dịch Vụ Liên Khu 31 Dương Nội, Hà Đông, Hà Nội",,,20.9876641,105.7464168
682,Caffe & Trà Sức Khỏe - Phạm Đình Hổ,"Số 9 Phạm Đình Hổ, Hai Bà Trưng, Hà Nội",,,21.0166051,105.8580952
683,"Trà Trái Cây, Sinh Tố & Nước Ép - ChiMini","48 Nguyễn Hữu Huân, P. Lý Thái Tổ, Hoàn Kiếm, Hà Nội",,,21.0336918,105.854322
684,Khánh Linh Quán - Louis 5,"Số 50 Đường Louis 5, P. Đại Mỗ, Nam Từ Liêm, Hà Nội",,,20.9872751,105.7648718
685,Banana - Coffee & Nước Ép Trái Cây,"74 Yên Phụ (Nằm Trên Dốc 76 Lối Vào Hanoi Club Yên Phụ), P. Yên Phụ, Tây Hồ, Hà Nội",,,21.0543551,105.836228
686,"Happy Juice - Nước Ép, Sinh Tố & Trà Hoa Quả - Nghĩa Dũng","24 Ngõ 15 Nghĩa Dũng, P. Phúc Xá, Ba Đình, Hà Nội",,,21.049586,105.8460841
687,Cha Tra Thai - Trà Thái Đường Phố Phong Cách BangKok - Đê La Thành,"327 Đê La Thành, P. Ô Chợ Dừa, Đống Đa, Hà Nội",,,21.0251037,105.811021
688,Cóc Xoài Bao Tử Khánh Ngọc - Nguyễn Khang,"Số Nhà 12 Ngách 7 Ngõ 381 Nguyễn Khang, P. Yên Hòa, Cầu Giấy, Hà Nội",,,21.0269996,105.7977968
689,Bếp Xanh - Giáp Bát,"12-14 Ngõ 270 Giáp Bát, P. Giáp Bát, Hoàng Mai, Hà Nội",,,20.9812701,105.8442375
690,"Trà Hoa Quả Tươi, Sinh Tố & Nước Ép Trái Cây - 127 Kim Hoa","127 Kim Hoa, P. Kim Liên, Đống Đa, Hà Nội",,,21.0096876,105.83916
691,Hotpot Cheng Cheng - Set Lẩu Nướng Gà Ủ Muối - Quỳnh Mai,"102C9 Quỳnh Mai, P. Quỳnh Mai, Hai Bà Trưng, Hà Nội",,,21.0011591,105.8601669
692,Shym - Coffee - Trần Thái Tông,"Số 4 Ngõ 45 Trần Thái Tông , Cầu Giấy, Hà Nội",,,21.0341686,105.7899395
693,"Sanvy - Trà Trái Cây, Sữa Chua Lắc & Trà Sữa","5 Ngõ 7 Lê Đức Thọ, P. Mỹ Đình 2, Nam Từ Liêm, Hà Nội",,,21.0320589,105.7702237
694,"Haye Foods - Mì Trộn Indo, Đồ Ăn Vặt & Trà Sữa - Quỳnh Lôi","15 Gác 1 C5 TT Quỳnh Mai, Ngõ 15 Phố Quỳnh Lôi, Hai Bà Trưng, Hà Nội",,,21.0009711,105.8590355
695,Cơm Tấm Hoàng - Cơm Tấm Sài Gòn - Nguyễn Đức Thuận,"309/2 Nguyễn Đức Thuận, Gia Lâm, Hà Nội",,,21.0196605,105.941032
696,HaNa Yummy - Hot Dog & Sandwich,"567A Phạm Văn Đồng, P. Cổ Nhuế, Bắc Từ Liêm, Hà Nội",,,21.0566076,105.7826825
697,"Phương Nga Fruits - Set Hoa Quả Sạch, Hoa Quả Gọt Sẵn & Nước Ép - 131 Ngõ Văn Chương","131 Ngõ Văn Chương, P. Văn Chương, Đống Đa, Hà Nội",,,21.0228331,105.8337731
698,HaNa Gâteaux - Shop Online,"567 Phạm Văn Đồng, P. Cổ Nhuế 2, Bắc Từ Liêm, Hà Nội",,,21.0566076,105.7826825
699,ChangTea - Đậm Vị Trà Ngon - S5 Vinhomes Symphony,"S5 Vinhomes Symphony Đường Chu Huy Mân, Long Biên, Hà Nội",,,21.0496956,105.9175795
700,"Dawa Cafe - Cafe, Matcha & Cacao","48 ngõ 442 Phạm Văn Đồng, P. Cổ Nhuế 2, Bắc Từ Liêm, Hà Nội",,,21.0570124,105.7813108
701,Cô Hạnh - Trà Trái Cây Nhiệt Đới - Văn Tiến Dũng,"Số 11D, Ngách 66 Ngõ 59 Văn Tiến Dũng, Bắc Từ Liêm, Hà Nội",,,21.049946,105.7487815
702,Hoa Lá - Sinh Tố & Nước Ép Trái Cây Tươi - Chùa Láng,"92A Ngõ 185 Chùa Láng, P. Láng Thượng, Đống Đa, Hà Nội",,,21.0206443,105.8022073
703,Trà Trái Cây Hà Lùn,"142 Xuân Đỉnh, Bắc Từ Liêm, Hà Nội",,,21.0715287,105.7982822
704,Bún Chả Đỗ Lý,"5 Ngõ 108 Xuân Đỉnh, P. Xuân Đỉnh, Bắc Từ Liêm, Hà Nội",,,21.0712307,105.799666
705,"Bánh Xèo, Tàu Hũ & Đồ Ăn Vặt - Hàng Đậu","Số 1 Hàng Đậu, Hoàn Kiếm, Hà Nội",,,21.032205,105.8539016
706,Bánh Mì Pate Cột Đèn & Bánh Mì Truyền Thống - 96 Doãn Kế Thiện,"96 Doãn Kế Thiện, Cầu Giấy, Hà Nội",,,21.0420954,105.7753446
707,Rau Má Mix Hà Anh - Hoàng Văn Thái,"70 Hoàng Văn Thái, P. Khương Mai, Thanh Xuân, Hà Nội",,,20.999418,105.827973
708,"AN VIỆT - Bún Đậu Mắm Tôm, Mì Trộn Indo & Đồ Ăn Vặt","11 Ngõ 459 Bạch Mai, P. Trương Định, Hai Bà Trưng, Hà Nội",,,20.9978119,105.8506232
709,Tiệm Cà Phê Bông - Trà Hoa Quả - Sài Đồng,"Số 23, Ngõ 42, Sài Đồng, TT. Sài Đồng, Long Biên, Hà Nội",,,21.0334877,105.910401
710,Bún Đậu Mắm Tôm Tuấn Lynh - Bún Đậu & Bún Chả Nướng - 9A Ngõ 294 Lĩnh Nam,"9A Ngõ 294 Lĩnh Nam, P. Lĩnh Nam, Hoàng Mai, Hà Nội",,,20.9802313,105.8784723
711,Sâu - Coffee & Tea - 255 Nguyễn Khang,"Nhà 12B2 Ngách 7 Ngõ 255 Nguyễn Khang, Cầu Giấy, Hà Nội",,,21.0231747,105.7976935
712,Cơm Chay An Vui - Đồ Chay Tuệ Lâm - Nguyễn Trãi,"Căng Tin CT1 Chung Cư Nàng Hương, 583 Nguyễn Trãi, Thanh Xuân, Hà Nội",,,20.9849707,105.7958706
713,Phương Linh Food - Shop Đồ Ăn Vặt Online,"Số 11A Xuân Phương, P. Minh Khai, Bắc Từ Liêm, Hà Nội",,,21.0579605,105.7463204
714,"Fruity Fresh - Nước Ép, Sinh Tố & Sữa Chua - Thành Công","101H3 Phố Thành Công, Ba Đình, Hà Nội",,,21.0203931,105.8157249
715,Mộc - Coffee & Tea - Đống Đa,"110 Ngõ Đại Đồng, Đống Đa, Hà Nội",,,21.0192141,105.8361578
716,Chóp Chép - Thế Giới Chè & Ăn Vặt,"1A Ngách 43 Ngõ 43 Chùa Bộc, P. Kim Liên, Đống Đa, Hà Nội",,,21.0055818,105.8322555
717,Matcha Ah! - Quán Đồ Uống - 240 Đường Láng,"240 Đường Láng, P. Thịnh Quang, Đống Đa, Hà Nội",,,21.0066112,105.816272
718,"Match Matcha - Tiệm Matcha, Trà Và Cà Phê - 565 Nguyễn Trãi","Nhà Số 7 Ngách 7 Hẻm 7 Ngõ 565 Nguyễn Trãi, Thanh Xuân, Hà Nội",,,20.9770551,105.8220956
719,Jaspas Restaurant,"Tầng 4, Tháp Hà Nội, 49 Hai Bà Trưng, P. Trần Hưng Đạo, Hoàn Kiếm, Hà Nội",,,21.0257026,105.846185
720,An Cựu - Bún Bò Huế - Trung Văn,"Ki Ốt 95 Khu TTTM VL1 Trung Văn (Đối Diện Cổng Trường Tiểu Học Nguyễn Du), P. Mễ Trì, Nam Từ Liêm, Hà Nội",,,20.9939934,105.7793796
721,Cơm Tấm Phan Thắng - Nguyễn Thị Định,"6 Ngõ 37 Nguyễn Thị Định, P. Trung Hoà, Cầu Giấy, Hà Nội",,,21.0113148,105.8048358
722,Cơm Gà Song Anh - Cơ Sở 1,"Số 64 Ngõ 1 Ao Sen, P. Mộ Lao, Hà Đông, Hà Nội",,,20.9813805,105.7885287
723,LaBoong - Trà Ô Long Làng La Boong - 358 Xã Đàn,"358 Xã Đàn, P. Nam Đồng, Đống Đa, Hà Nội",,,21.0143458,105.8343954
724,Trà Sữa Tocotoco - Lò Đúc,"149A Lò Đúc, P. Đống Mác, Hai Bà Trưng, Hà Nội",,,21.0108469,105.8599437
725,"Cô Ti's Kitchen - Cơm, Salad & Ăn Vặt Online","51 Ngõ 262B Nguyễn Trãi, P. Thanh Xuân Trung, Thanh Xuân, Hà Nội",,,20.997884,105.810345
726,Gugsumi - Bún Trộn Chính Hiệu - Đường 800A,"3A Ngõ 4 Đường 800A, P. Nghĩa Đô, Cầu Giấy, Hà Nội",,,21.039704,105.8017564
727,Tự Nhiên Thấy Đói - Mỳ Cay & Gà Ủ Muối - Nguyễn Khánh Toàn,"Số nhà 7, Ngách 8, Ngõ 92, Nguyễn Khánh Toàn, P. Quan Hoa, Cầu Giấy, Hà Nội",,,21.0373923,105.8023685
728,Mỳ Chua Cay Tomyum & Nộm Chân Gà Sốt Thái - Nguyễn Khánh Toàn,"47 Ngách 12 Ngõ 58 Nguyễn Khánh Toàn, P. Quan Hoa, Cầu Giấy, Hà Nội",,,21.0369721,105.8032438
729,Giang Cún - Bún Thái Hải Sản - Định Công Thượng,"Số 28 Ngách 15 Ngõ 112 Định Công Thượng, P. Định Công, Hoàng Mai, Hà Nội",,,20.9831139,105.8223091
730,"Bami Bee - Gà Ủ Muối, Mì Gà Tần & Mì Trộn Indomie - Đầm Bầu","49 Đầm Bầu (Dốc Viện Phụ Sản HN), P. Ngọc Khánh, Ba Đình, Hà Nội",,,21.0268345,105.808937
731,"Bánh Đúc Nóng Online - Đồ Ăn Vặt, Chân Gà Sả Tắc & Đồ Uống - Phúc Đồng","14A8 Khu 918, P. Phúc Đồng, Long Biên, Hà Nội",,,21.0353381,105.8997302
732,Anh Béo - Bún Miến Ngan - Trần Quốc Vượng,"1 Ngách 26 Ngõ 63 Trần Quốc Vượng, P. Dịch Vọng Hậu, Cầu Giấy, Hà Nội",,,21.0348033,105.7853996
733,"NADO - Lẩu Thái, Mỳ Cay & Đồ Ăn Vặt","Số 68 Ngõ 195 Cầu Diễn, P. Phúc Diễn, Bắc Từ Liêm, Hà Nội",,,21.0460368,105.7483679
734,"Tiệm Mì Sinh Viên - Mì Trộn Indomie, Bánh Tráng & Viên Chiên","91/35 Số 2 Nguyễn Chí Thanh, P. Láng Hạ, Đống Đa, Hà Nội",,,21.0258135,105.8116295
735,Bếp Ba Bột - Chân Gà Sốt Thái & Chân Gà Hấp Thảo Quả - Nghĩa Tân,"Cầu Thang 1 Nhà C8, P. Nghĩa Tân, Cầu Giấy, Hà Nội",,,21.042847,105.7956569
736,Bánh Mỳ Thanh Cảnh Cơ Sở 4 - Bánh Mỳ Chảo - Xuân Phương,"Số Nhà 2 Ngõ 80 Xuân Phương, P. Phương Canh, Nam Từ Liêm, Hà Nội",,,21.049999,105.7332489
737,Tiệm Bánh Rapha - Shop Online - Giáp Bát,"76 Ngõ 119 Giáp Bát, Hoàng Mai, Hà Nội",,,20.9860377,105.8441949
738,"Chef Hoàng - Trứng Gà Nướng, Xôi & Nước Ép - Trần Phú","96 Trần Phú, P. Mộ Lao, Hà Đông, Hà Nội",,,20.979678,105.7868387
739,Ăn Vặt Xuyên Việt - Mì Trộn Indomie - Ngọc Thuỵ,"TT2-24 Khu Tái Định Cư Ngọc Thụy, P. Ngọc Thụy, Long Biên, Hà Nội",,,21.0570172,105.8733547
740,Cơm Văn Phòng Hùng Nguyễn - 15 Ngõ 8 Khu Tập Thể Chi Cục Thủy Sản,"15 Ngõ 8 Khu Tập Thể Chi Cục Thủy Sản, X. Thanh Liệt, Thanh Trì, Hà Nội",,,20.9629615,105.8025147
741,Gà Rán Việt,"3 Hồng Mai, P. Bạch Mai, Hai Bà Trưng, Hà Nội",,,20.9989761,105.8512094
742,Phở Cuốn Anh Tú,"178 Ngọc Lâm, P. Ngọc Lâm, Long Biên, Hà Nội",,,21.0468238,105.8717343
743,Tiệm Gà Ủ Muối - Gà Luộc & Gà Ủ Muối - Lê Quý Đôn 2,"47 Lê Quý Đôn 2, P. Hà Cầu, Hà Đông, Hà Nội",,,20.96752,105.7820143
744,Nhật Hạ - Vua Gà Ủ Muối - Xuân Phương,"Đối Diện 46 Xuân Phương, P. Minh Khai, Bắc Từ Liêm, Hà Nội",,,21.0526151,105.7332958
745,Bánh Mì & Pate Cột Đèn Hải Phòng Tâm Cook - Ngô Thì Nhậm,"18A Ngô Thì Nhậm, P. Hà Cầu, Hà Đông, Hà Nội",,,20.9687568,105.7692944
746,"Gà Luộc, Gà Ủ Muối & Cơm Cháy - Duyên Dương","Số 32 Ngách 59 Ngõ 68 Triều Khúc, P. Thanh Xuân Nam, Thanh Xuân, Hà Nội",,,20.9829925,105.7994617
747,"Minh Kem Food - Pizza, Mỳ Ý & Ăn Vặt - Lĩnh Nam","12A1 Ngách 121/1 Ngõ 255 Lĩnh Nam, P. Vĩnh Hưng, Hoàng Mai, Hà Nội",,,20.98803,105.8748573
748,3DELI LEMON TEA - Nguyễn Văn Lộc,"9 Nguyễn Văn Lộc, P. Mộ Lao, Hà Đông, Hà Nội",,,20.9818389,105.7884572
749,Min Bakery - Bông Lan Trứng Muối Online,"132 Nguyễn Huy Tưởng, P. Thanh Xuân Trung, Thanh Xuân, Hà Nội",,,20.9980611,105.8050312
750,Bếp Về Đêm - Đồ Ăn Nhanh - 83 Sông Nhuệ,"83 Sông Nhuệ, P. Đức Thắng, Bắc Từ Liêm, Hà Nội",,,21.0798488,105.7747307
751,Xôi Bà Ngà - Đồ ăn - Thuỵ Khuê,"Số nhà 25 ngõ 514 Thuỵ Khuê, Tây Hồ, Hà Nội",,,21.0491264,105.8094866
752,Alopizza - Mỳ Ý & Pizza Tươi 100% - Phú Lương,"20A Ngách 2/7 Ngõ Trần Hưng Đạo, P. Phú Lương, Phú Lãm, Hà Đông, Hà Nội",,,20.9429913,105.7576662
753,Trà Sữa Tiger Sugar By HongKong - Vương Thừa Vũ,"P208 - 55 Ngõ 164 Vương Thừa Vũ, P. Khương Trung, Thanh Xuân, Hà Nội",,,20.9957152,105.8200939
754,Bếp Của Vụn - Bánh Bông Lan Trứng Muối Online,"7 Ngõ 332 Lĩnh Nam (Vào Ngõ Rẽ Trái), P. Lĩnh Nam, Hoàng Mai, Hà Nội",,,20.9801609,105.8791133
755,Bún Đậu Mẹt 268 Tô Hiệu,"8 Tô Hiệu, P. Nghia Tân, Cầu Giấy, Hà Nội",,,21.0458428,105.7964978
756,Sườn Phố - Sườn Nướng BBQ,"Số 1 Ngõ 44 Phố Nguyên Khiết, P. Phúc Tân, Hoàn Kiếm, Hà Nội",,,21.0343784,105.8568003
757,Ốc Phê - 117 Nguyễn Hữu Thọ,"Số 117 Nguyễn Hữu Thọ, P. Hoàng Liệt, Hoàng Mai, Hà Nội",,,20.9699477,105.8319242
758,"Bình Food - Mì Indomie, Bánh Mì & Đồ Ăn Vặt","Số 10B ngõ 22 Trung Kính, P. Trung Hoà, Cầu Giấy, Hà Nội",,,21.0140645,105.799803
759,Trà Trái Cây Tươi - Tiệm Trà Hà Mã - Lê Thanh Nghị,"Số 1 Ngách 72 Ngõ 121 Lê Thanh Nghị, P. Đồng Tâm, Hai Bà Trưng, Hà Nội",,,21.0021416,105.8416735
760,"Mai Chicken - Mỳ Trộn Indomie, Gà Rán & Bánh Gà - 312 Phố Chùa Quỳnh","312 Phố Chùa Quỳnh, Hai Bà Trưng, Hà Nội",,,21.0001395,105.8538489
761,Sói Food - Trộn Tê Cay & Mì Trộn Indomie - 178 Hoàng Mai,"8A Ngõ 178 Hoàng Mai, Hoàng Mai, Hà Nội",,,20.9899869,105.8530427
762,Fong Tea - Trà Sữa Hong Kong,"47 Tổ 9 Mậu Lương, P. Kiến Hưng , Hà Đông, Hà Nội",,,20.9578854,105.7906327
763,"Bếp Của Tớ - Mỳ Trộn, Bún Trộn & Cháo - 46 Phạm Ngọc Thạch","Số 57 Ngõ 46 Phạm Ngọc Thạch, Đống Đa, Hà Nội",,,21.0114417,105.8349734
764,CleanFastFood - Thế Giới Đồ Ăn Vặt - Vinhomes Smart City,"Toà S201, Vinhomes Smart City Đại Lộ Thăng Long, P. Tây Mỗ, Nam Từ Liêm, Hà Nội",,,21.0071028,105.7369957
765,Tteokbokki Qlinh - Tokbokki & Đồ Ăn Hàn Quốc - Cầu Diễn,"Số 45 Ngõ 99 Đường Cầu Diễn, P. Phúc Diễn, Bắc Từ Liêm, Hà Nội",,,21.0447062,105.7493684
766,Nem Nướng Nha Trang - Khúc Thừa Dụ,"Số nhà 14 ngõ 38 Khúc Thừa Dụ, P. Dịch Vọng, Cầu Giấy, Hà Nội",,,21.0341207,105.7914413
767,Tiệm Cú Đêm - Triều Khúc - Shop Online,"2 Ngõ 111 (Cuối Ngõ 111) Triều Khúc, Thanh Trì, Hà Nội",,,20.9832293,105.8009954
768,"688 Food - Cơm Thịt Xào Cay, Mỳ Cay & Chân Giò Hàn Quốc - Mỹ Đình","43 Ng. 20 Đ. Mỹ Đình, P. Mỹ Đình, Nam Từ Liêm, Hà Nội",,,21.0316306,105.7728163
769,Bánh Đa Sườn Hải Phòng & Cơm Suất Ngon - Văn Chương,"12/92 Văn Chương, Đống Đa, Hà Nội",,,21.022491,105.8371026
770,Bún Đậu Làng Mơ 33 - Chính Kinh,"51 Ngõ 12 Chính Kinh, Thanh Xuân, Hà Nội",,,20.9992183,105.813
771,Nấm Food - Bánh Mì Muối Ớt & Bơ Tỏi - Nguyễn Lân,"5/14 Nguyễn Lân, P. Phương Liệt, Thanh Xuân, Hà Nội",,,20.9944987,105.8362762
772,Katriane - Kafé & Food - Đường 32,"8 Tổ 1 Cạnh Đường Tàu Phú Diễn, Đường 32, P. Phú Diễn, Bắc Từ Liêm, Hà Nội",,,21.042619,105.7613354
773,"Haki Quán - Cháo Ếch, Mì Trộn Indomie & Đồ Ăn Vặt - Thanh Lãm","4 Ngõ 5 Thanh Lãm, Hà Đông, Hà Nội",,,20.9451044,105.7527564
774,"Bếp Cô Hà - Mỳ Trộn, Xôi & Bánh Mỳ - 95 Yên Hòa","95 Yên Hòa, P. Yên Hòa, Cầu Giấy, Hà Nội",,,21.0218044,105.790872
